[{"name":"Jesus Christ","birthYear":-5,"deathYear":30,"birthLat":31.7044,"birthLng":35.2061,"deathLat":31.7786,"deathLng":35.2294,"fame":343,"image":"https://upload.wikimedia.org/wikipedia/commons/thumb/3/3b/Spas_vsederzhitel_sinay_%28cropped1%29.jpg/330px-Spas_vsederzhitel_sinay_%28cropped1%29.jpg","wiki":"https://en.wikipedia.org/wiki/Jesus"},{"name":"William Shakespeare","birthYear":1564,"deathYear":1616,"birthLat":52.1928,"birthLng":-1.7064,"deathLat":52.1928,"deathLng":-1.7064,"fame":335,"image":"https://upload.wikimedia.org/wikipedia/commons/thumb/2/21/William_Shakespeare_by_John_Taylor%2C_edited.jpg/330px-William_Shakespeare_by_John_Taylor%2C_edited.jpg","wiki":"https://en.wikipedia.org/wiki/William_Shakespeare"},{"name":"Michael Jackson","birthYear":1958,"deathYear":2009,"birthLat":41.5808,"birthLng":-87.3456,"deathLat":34.0522,"deathLng":-118.2437,"fame":324,"image":"https://upload.wikimedia.org/wikipedia/commons/thumb/b/b9/Michael_Jackson_1983_%283x4_cropped%29_%28contrast%29.jpg/330px-Michael_Jackson_1983_%283x4_cropped%29_%28contrast%29.jpg","wiki":"https://en.wikipedia.org/wiki/Michael_Jackson"},{"name":"Adolf Hitler","birthYear":1889,"deathYear":1945,"birthLat":48.2583,"birthLng":13.0333,"deathLat":52.5125,"deathLng":13.3815,"fame":322,"image":"https://upload.wikimedia.org/wikipedia/commons/thumb/0/0c/Hitler_portrait_crop_%28cropped%29%282%29.jpg/330px-Hitler_portrait_crop_%28cropped%29%282%29.jpg","wiki":"https://en.wikipedia.org/wiki/Adolf_Hitler"},{"name":"Albert Einstein","birthYear":1879,"deathYear":1955,"birthLat":48.3986,"birthLng":9.9911,"deathLat":40.3522,"deathLng":-74.6569,"fame":320,"image":"https://upload.wikimedia.org/wikipedia/commons/thumb/2/28/Albert_Einstein_Head_cleaned.jpg/330px-Albert_Einstein_Head_cleaned.jpg","wiki":"https://en.wikipedia.org/wiki/Albert_Einstein"},{"name":"Aristotle","birthYear":-383,"deathYear":-321,"birthLat":40.593,"birthLng":23.792,"deathLat":38.4624,"deathLng":23.5971,"fame":316,"image":"https://upload.wikimedia.org/wikipedia/commons/thumb/a/ae/Aristotle_Altemps_Inv8575.jpg/330px-Aristotle_Altemps_Inv8575.jpg","wiki":"https://en.wikipedia.org/wiki/Aristotle"},{"name":"Karl Marx","birthYear":1818,"deathYear":1883,"birthLat":49.7557,"birthLng":6.6394,"deathLat":51.5072,"deathLng":-0.1275,"fame":310,"image":"https://upload.wikimedia.org/wikipedia/commons/thumb/f/f3/Karl_Marx_by_John_Jabez_Edwin_Mayall_1875_-_Restored_%26_Adjusted_%283x4_cropped_b%29.png/330px-Karl_Marx_by_John_Jabez_Edwin_Mayall_1875_-_Restored_%26_Adjusted_%283x4_cropped_b%29.png","wiki":"https://en.wikipedia.org/wiki/Karl_Marx"},{"name":"Confucius","birthYear":-550,"deathYear":-478,"birthLat":35.6,"birthLng":116.9833,"deathLat":35.2253,"deathLng":116.6536,"fame":309,"image":"https://upload.wikimedia.org/wikipedia/commons/thumb/5/54/Confucius_Tang_Dynasty.jpg/330px-Confucius_Tang_Dynasty.jpg","wiki":"https://en.wikipedia.org/wiki/Confucius"},{"name":"Leonardo da Vinci","birthYear":1452,"deathYear":1519,"birthLat":43.7992,"birthLng":10.9381,"deathLat":47.4102,"deathLng":0.992,"fame":304,"image":"https://upload.wikimedia.org/wikipedia/commons/thumb/c/cb/Francesco_Melzi_-_Portrait_of_Leonardo.png/330px-Francesco_Melzi_-_Portrait_of_Leonardo.png","wiki":"https://en.wikipedia.org/wiki/Leonardo_da_Vinci"},{"name":"Ronald Reagan","birthYear":1911,"deathYear":2004,"birthLat":41.6311,"birthLng":-89.7858,"deathLat":34.0833,"deathLng":-118.4478,"fame":304,"image":"https://upload.wikimedia.org/wikipedia/commons/thumb/1/16/Official_Portrait_of_President_Reagan_1981.jpg/330px-Official_Portrait_of_President_Reagan_1981.jpg","wiki":"https://en.wikipedia.org/wiki/Ronald_Reagan"},{"name":"Isaac Newton","birthYear":1643,"deathYear":1727,"birthLat":52.8092,"birthLng":-0.6306,"deathLat":51.5004,"deathLng":-0.1909,"fame":302,"image":"https://upload.wikimedia.org/wikipedia/commons/thumb/f/f7/Portrait_of_Sir_Isaac_Newton%2C_1689_%28brightened%29.jpg/330px-Portrait_of_Sir_Isaac_Newton%2C_1689_%28brightened%29.jpg","wiki":"https://en.wikipedia.org/wiki/Isaac_Newton"},{"name":"Plato","birthYear":-428,"deathYear":-348,"birthLat":37.9842,"birthLng":23.7281,"deathLat":37.9842,"deathLng":23.7281,"fame":300,"image":"https://upload.wikimedia.org/wikipedia/commons/thumb/2/21/Plato_Silanion_Musei_Capitolini_MC1377.png/330px-Plato_Silanion_Musei_Capitolini_MC1377.png","wiki":"https://en.wikipedia.org/wiki/Plato"},{"name":"Vladimir Lenin","birthYear":1870,"deathYear":1924,"birthLat":54.3167,"birthLng":48.3667,"deathLat":55.5047,"deathLng":37.7645,"fame":294,"image":"https://upload.wikimedia.org/wikipedia/commons/thumb/c/c0/Lenin_in_1920_%28cropped%29.jpg/330px-Lenin_in_1920_%28cropped%29.jpg","wiki":"https://en.wikipedia.org/wiki/Vladimir_Lenin"},{"name":"Abraham Lincoln","birthYear":1809,"deathYear":1865,"birthLat":37.5333,"birthLng":-85.7333,"deathLat":38.8967,"deathLng":-77.0258,"fame":292,"image":"https://upload.wikimedia.org/wikipedia/commons/thumb/5/57/Abraham_Lincoln_1863_Portrait_%283x4_cropped%29.jpg/330px-Abraham_Lincoln_1863_Portrait_%283x4_cropped%29.jpg","wiki":"https://en.wikipedia.org/wiki/Abraham_Lincoln"},{"name":"Nelson Mandela","birthYear":1918,"deathYear":2013,"birthLat":-31.95,"birthLng":28.516,"deathLat":-26.15,"deathLng":28.05,"fame":292,"image":"https://upload.wikimedia.org/wikipedia/commons/thumb/0/02/Nelson_Mandela_1994.jpg/330px-Nelson_Mandela_1994.jpg","wiki":"https://en.wikipedia.org/wiki/Nelson_Mandela"},{"name":"Napoleon","birthYear":1769,"deathYear":1821,"birthLat":41.9256,"birthLng":8.7364,"deathLat":-15.9502,"deathLng":-5.683,"fame":286,"image":"https://upload.wikimedia.org/wikipedia/commons/thumb/5/50/Jacques-Louis_David_-_The_Emperor_Napoleon_in_His_Study_at_the_Tuileries_-_Google_Art_Project.jpg/330px-Jacques-Louis_David_-_The_Emperor_Napoleon_in_His_Study_at_the_Tuileries_-_Google_Art_Project.jpg","wiki":"https://en.wikipedia.org/wiki/Napoleon"},{"name":"Muhammad","birthYear":571,"deathYear":632,"birthLat":21.4225,"birthLng":39.8261,"deathLat":24.47,"deathLng":39.61,"fame":285,"image":"https://upload.wikimedia.org/wikipedia/commons/thumb/7/73/Al-Masjid_AL-Nabawi_Door.jpg/330px-Al-Masjid_AL-Nabawi_Door.jpg","wiki":"https://en.wikipedia.org/wiki/Muhammad"},{"name":"Mahatma Gandhi","birthYear":1869,"deathYear":1948,"birthLat":21.6425,"birthLng":69.6047,"deathLat":28.6019,"deathLng":77.2144,"fame":283,"image":"https://upload.wikimedia.org/wikipedia/commons/thumb/7/7a/Mahatma-Gandhi%2C_studio%2C_1931.jpg/330px-Mahatma-Gandhi%2C_studio%2C_1931.jpg","wiki":"https://en.wikipedia.org/wiki/Mahatma_Gandhi"},{"name":"Julius Caesar","birthYear":-99,"deathYear":-43,"birthLat":41.8931,"birthLng":12.4828,"deathLat":41.8953,"deathLng":12.4736,"fame":281,"image":"https://upload.wikimedia.org/wikipedia/commons/thumb/6/62/Retrato_de_Julio_C%C3%A9sar_%2826724093101%29_%28cropped%29.jpg/330px-Retrato_de_Julio_C%C3%A9sar_%2826724093101%29_%28cropped%29.jpg","wiki":"https://en.wikipedia.org/wiki/Julius_Caesar"},{"name":"Leo Tolstoy","birthYear":1828,"deathYear":1910,"birthLat":54.0751,"birthLng":37.5264,"deathLat":53.2075,"deathLng":39.5375,"fame":279,"image":"https://upload.wikimedia.org/wikipedia/commons/thumb/b/be/Leo_Tolstoy_1908_Portrait_%283x4_cropped%29.jpg/330px-Leo_Tolstoy_1908_Portrait_%283x4_cropped%29.jpg","wiki":"https://en.wikipedia.org/wiki/Leo_Tolstoy"},{"name":"Johann Wolfgang von Goethe","birthYear":1749,"deathYear":1832,"birthLat":50.1106,"birthLng":8.6822,"deathLat":50.9811,"deathLng":11.3294,"fame":278,"image":"https://upload.wikimedia.org/wikipedia/commons/thumb/0/0e/Goethe_%28Stieler_1828%29.jpg/330px-Goethe_%28Stieler_1828%29.jpg","wiki":"https://en.wikipedia.org/wiki/Johann_Wolfgang_von_Goethe"},{"name":"Joseph Stalin","birthYear":1878,"deathYear":1953,"birthLat":41.9817,"birthLng":44.1124,"deathLat":55.7243,"deathLng":37.4853,"fame":278,"image":"https://upload.wikimedia.org/wikipedia/commons/thumb/0/08/StalinCropped1943.jpg/330px-StalinCropped1943.jpg","wiki":"https://en.wikipedia.org/wiki/Joseph_Stalin"},{"name":"Charles Darwin","birthYear":1809,"deathYear":1882,"birthLat":52.7128,"birthLng":-2.7633,"deathLat":51.3314,"deathLng":0.0533,"fame":277,"image":"https://upload.wikimedia.org/wikipedia/commons/thumb/2/2e/Charles_Darwin_seated_crop.jpg/330px-Charles_Darwin_seated_crop.jpg","wiki":"https://en.wikipedia.org/wiki/Charles_Darwin"},{"name":"Socrates","birthYear":-469,"deathYear":-398,"birthLat":37.95,"birthLng":23.75,"deathLat":37.9842,"deathLng":23.7281,"fame":275,"image":"https://upload.wikimedia.org/wikipedia/commons/thumb/a/a4/Socrates_Louvre.jpg/330px-Socrates_Louvre.jpg","wiki":"https://en.wikipedia.org/wiki/Socrates"},{"name":"Wolfgang Amadeus Mozart","birthYear":1756,"deathYear":1791,"birthLat":47.8,"birthLng":13.045,"deathLat":48.2083,"deathLng":16.3725,"fame":273,"image":"https://upload.wikimedia.org/wikipedia/commons/thumb/a/ad/The_Mozart_Family_-_Wolfgang_Amadeus_Mozart_headshot.jpg/330px-The_Mozart_Family_-_Wolfgang_Amadeus_Mozart_headshot.jpg","wiki":"https://en.wikipedia.org/wiki/Wolfgang_Amadeus_Mozart"},{"name":"Ludwig van Beethoven","birthYear":1770,"deathYear":1827,"birthLat":50.7353,"birthLng":7.1022,"deathLat":48.2083,"deathLng":16.3725,"fame":273,"image":"https://upload.wikimedia.org/wikipedia/commons/thumb/6/6e/Joseph_Karl_Stieler%27s_Beethoven_mit_dem_Manuskript_der_Missa_solemnis.jpg/330px-Joseph_Karl_Stieler%27s_Beethoven_mit_dem_Manuskript_der_Missa_solemnis.jpg","wiki":"https://en.wikipedia.org/wiki/Ludwig_van_Beethoven"},{"name":"George Washington","birthYear":1732,"deathYear":1799,"birthLat":38.11,"birthLng":-76.8,"deathLat":38.7078,"deathLng":-77.0861,"fame":272,"image":"https://upload.wikimedia.org/wikipedia/commons/thumb/b/b6/Gilbert_Stuart_Williamstown_Portrait_of_George_Washington.jpg/330px-Gilbert_Stuart_Williamstown_Portrait_of_George_Washington.jpg","wiki":"https://en.wikipedia.org/wiki/George_Washington"},{"name":"The Buddha","birthYear":-500,"deathYear":-500,"birthLat":27.4814,"birthLng":83.2758,"deathLat":26.7403,"deathLng":83.8889,"fame":272,"image":"https://upload.wikimedia.org/wikipedia/commons/thumb/f/ff/Buddha_in_Sarnath_Museum_%28Dhammajak_Mutra%29.jpg/330px-Buddha_in_Sarnath_Museum_%28Dhammajak_Mutra%29.jpg","wiki":"https://en.wikipedia.org/wiki/The_Buddha"},{"name":"Dante Alighieri","birthYear":1265,"deathYear":1321,"birthLat":43.7714,"birthLng":11.2542,"deathLat":44.4161,"deathLng":12.2017,"fame":269,"image":"https://upload.wikimedia.org/wikipedia/commons/thumb/e/ea/Bargello_-_Kapelle_Fresko_2a.jpg/330px-Bargello_-_Kapelle_Fresko_2a.jpg","wiki":"https://en.wikipedia.org/wiki/Dante_Alighieri"},{"name":"Galileo Galilei","birthYear":1564,"deathYear":1642,"birthLat":43.7167,"birthLng":10.4,"deathLat":43.7548,"deathLng":11.2518,"fame":269,"image":"https://upload.wikimedia.org/wikipedia/commons/thumb/f/fc/Galileo_Galilei_%281564-1642%29_RMG_BHC2700.tiff/lossy-page1-330px-Galileo_Galilei_%281564-1642%29_RMG_BHC2700.tiff.jpg","wiki":"https://en.wikipedia.org/wiki/Galileo_Galilei"},{"name":"Vincent van Gogh","birthYear":1853,"deathYear":1890,"birthLat":51.4703,"birthLng":4.66,"deathLat":49.0717,"deathLng":2.1742,"fame":263,"image":"https://upload.wikimedia.org/wikipedia/commons/thumb/4/4c/Vincent_van_Gogh_-_Self-Portrait_-_Google_Art_Project_%28454045%29.jpg/330px-Vincent_van_Gogh_-_Self-Portrait_-_Google_Art_Project_%28454045%29.jpg","wiki":"https://en.wikipedia.org/wiki/Vincent_van_Gogh"},{"name":"Pablo Picasso","birthYear":1881,"deathYear":1973,"birthLat":36.7167,"birthLng":-4.4167,"deathLat":43.5949,"deathLng":7.0051,"fame":263,"image":"https://upload.wikimedia.org/wikipedia/commons/thumb/9/98/Pablo_picasso_1.jpg/330px-Pablo_picasso_1.jpg","wiki":"https://en.wikipedia.org/wiki/Pablo_Picasso"},{"name":"Alexander the Great","birthYear":-355,"deathYear":-322,"birthLat":40.76,"birthLng":22.5256,"deathLat":32.5229,"deathLng":44.4241,"fame":261,"image":"https://upload.wikimedia.org/wikipedia/commons/thumb/4/49/Alexander_Mosaic_detail_of_Alexander_the_Great_%283x4_cropped%29.jpg/330px-Alexander_Mosaic_detail_of_Alexander_the_Great_%283x4_cropped%29.jpg","wiki":"https://en.wikipedia.org/wiki/Alexander_the_Great"},{"name":"Michelangelo","birthYear":1475,"deathYear":1564,"birthLat":43.6408,"birthLng":11.9858,"deathLat":41.8931,"deathLng":12.4828,"fame":259,"image":"https://upload.wikimedia.org/wikipedia/commons/thumb/0/02/Michelangelo_Daniele_da_Volterra_%28dettaglio%29.jpg/330px-Michelangelo_Daniele_da_Volterra_%28dettaglio%29.jpg","wiki":"https://en.wikipedia.org/wiki/Michelangelo"},{"name":"Charlie Chaplin","birthYear":1889,"deathYear":1977,"birthLat":51.4898,"birthLng":-0.0905,"deathLat":46.4667,"deathLng":6.85,"fame":259,"image":"https://upload.wikimedia.org/wikipedia/commons/thumb/8/82/Charlie_Chaplin_portrait_Getty_1739411952.jpg/330px-Charlie_Chaplin_portrait_Getty_1739411952.jpg","wiki":"https://en.wikipedia.org/wiki/Charlie_Chaplin"},{"name":"Johann Sebastian Bach","birthYear":1685,"deathYear":1750,"birthLat":50.9747,"birthLng":10.3244,"deathLat":51.3396,"deathLng":12.3713,"fame":258,"image":"https://upload.wikimedia.org/wikipedia/commons/thumb/6/6a/Johann_Sebastian_Bach.jpg/330px-Johann_Sebastian_Bach.jpg","wiki":"https://en.wikipedia.org/wiki/Johann_Sebastian_Bach"},{"name":"Winston Churchill","birthYear":1874,"deathYear":1965,"birthLat":51.8414,"birthLng":-1.3609,"deathLat":51.5004,"deathLng":-0.1827,"fame":257,"image":"https://upload.wikimedia.org/wikipedia/commons/thumb/0/02/Sir_Winston_Churchill_-_19086236948_%28restored%29.jpg/330px-Sir_Winston_Churchill_-_19086236948_%28restored%29.jpg","wiki":"https://en.wikipedia.org/wiki/Winston_Churchill"},{"name":"Martin Luther","birthYear":1483,"deathYear":1546,"birthLat":51.5167,"birthLng":11.55,"deathLat":51.5167,"deathLng":11.55,"fame":257,"image":"https://upload.wikimedia.org/wikipedia/commons/thumb/9/90/Lucas_Cranach_d.%C3%84._-_Martin_Luther%2C_1528_%28Veste_Coburg%29.jpg/330px-Lucas_Cranach_d.%C3%84._-_Martin_Luther%2C_1528_%28Veste_Coburg%29.jpg","wiki":"https://en.wikipedia.org/wiki/Martin_Luther"},{"name":"Voltaire","birthYear":1694,"deathYear":1778,"birthLat":48.8567,"birthLng":2.3522,"deathLat":48.8567,"deathLng":2.3522,"fame":254,"image":"https://upload.wikimedia.org/wikipedia/commons/thumb/b/bf/Nicolas_de_Largilli%C3%A8re_-_Portrait_de_Voltaire_%281694-1778%29_en_1718_-_P208_-_mus%C3%A9e_Carnavalet_-_5_%28cropped%29.jpg/330px-Nicolas_de_Largilli%C3%A8re_-_Portrait_de_Voltaire_%281694-1778%29_en_1718_-_P208_-_mus%C3%A9e_Carnavalet_-_5_%28cropped%29.jpg","wiki":"https://en.wikipedia.org/wiki/Voltaire"},{"name":"Friedrich Nietzsche","birthYear":1844,"deathYear":1900,"birthLat":51.2408,"birthLng":12.1161,"deathLat":50.9811,"deathLng":11.3294,"fame":254,"image":"https://upload.wikimedia.org/wikipedia/commons/thumb/1/1b/Nietzsche187a.jpg/330px-Nietzsche187a.jpg","wiki":"https://en.wikipedia.org/wiki/Friedrich_Nietzsche"},{"name":"Mustafa Kemal Atatürk","birthYear":1881,"deathYear":1938,"birthLat":40.6403,"birthLng":22.9356,"deathLat":41.0394,"deathLng":29.0017,"fame":253,"image":"https://upload.wikimedia.org/wikipedia/commons/thumb/6/68/Portret_van_de_Turkse_leider_Mustafa_Kemal_Ataturk_%28Atat%C3%BCrk_Kemal_Pascha%29_%281881-1938%29_in_westers%2C_SFA003017837.jpg/330px-Portret_van_de_Turkse_leider_Mustafa_Kemal_Ataturk_%28Atat%C3%BCrk_Kemal_Pascha%29_%281881-1938%29_in_westers%2C_SFA003017837.jpg","wiki":"https://en.wikipedia.org/wiki/Mustafa_Kemal_Atat%C3%BCrk"},{"name":"Elizabeth II","birthYear":1926,"deathYear":2022,"birthLat":51.5103,"birthLng":-0.1456,"deathLat":57.0407,"deathLng":-3.2302,"fame":253,"image":"https://upload.wikimedia.org/wikipedia/commons/thumb/1/11/Queen_Elizabeth_II_official_portrait_for_1959_tour_%28retouched%29_%28cropped%29_%283-to-4_aspect_ratio%29.jpg/330px-Queen_Elizabeth_II_official_portrait_for_1959_tour_%28retouched%29_%28cropped%29_%283-to-4_aspect_ratio%29.jpg","wiki":"https://en.wikipedia.org/wiki/Elizabeth_II"},{"name":"Fyodor Dostoyevsky","birthYear":1821,"deathYear":1881,"birthLat":55.7836,"birthLng":37.6119,"deathLat":59.95,"deathLng":30.3167,"fame":253,"image":"https://upload.wikimedia.org/wikipedia/commons/thumb/7/78/Vasily_Perov_-_%D0%9F%D0%BE%D1%80%D1%82%D1%80%D0%B5%D1%82_%D0%A4.%D0%9C.%D0%94%D0%BE%D1%81%D1%82%D0%BE%D0%B5%D0%B2%D1%81%D0%BA%D0%BE%D0%B3%D0%BE_-_Google_Art_Project.jpg/330px-Vasily_Perov_-_%D0%9F%D0%BE%D1%80%D1%82%D1%80%D0%B5%D1%82_%D0%A4.%D0%9C.%D0%94%D0%BE%D1%81%D1%82%D0%BE%D0%B5%D0%B2%D1%81%D0%BA%D0%BE%D0%B3%D0%BE_-_Google_Art_Project.jpg","wiki":"https://en.wikipedia.org/wiki/Fyodor_Dostoevsky"},{"name":"Immanuel Kant","birthYear":1724,"deathYear":1804,"birthLat":54.7115,"birthLng":20.5093,"deathLat":54.7115,"deathLng":20.5093,"fame":251,"image":"https://upload.wikimedia.org/wikipedia/commons/thumb/7/79/Immanuel_Kant_-_Gemaelde_1.jpg/330px-Immanuel_Kant_-_Gemaelde_1.jpg","wiki":"https://en.wikipedia.org/wiki/Immanuel_Kant"},{"name":"Mark Twain","birthYear":1835,"deathYear":1910,"birthLat":39.4917,"birthLng":-91.7903,"deathLat":41.3044,"deathLng":-73.3928,"fame":250,"image":"https://upload.wikimedia.org/wikipedia/commons/thumb/0/0c/Mark_Twain_by_AF_Bradley.jpg/330px-Mark_Twain_by_AF_Bradley.jpg","wiki":"https://en.wikipedia.org/wiki/Mark_Twain"},{"name":"Thomas Edison","birthYear":1847,"deathYear":1931,"birthLat":41.2931,"birthLng":-82.6011,"deathLat":40.7986,"deathLng":-74.2392,"fame":250,"image":"https://upload.wikimedia.org/wikipedia/commons/thumb/9/9d/Thomas_Edison2.jpg/330px-Thomas_Edison2.jpg","wiki":"https://en.wikipedia.org/wiki/Thomas_Edison"},{"name":"John F. Kennedy","birthYear":1917,"deathYear":1963,"birthLat":42.3317,"birthLng":-71.1217,"deathLat":32.8111,"deathLng":-96.8383,"fame":250,"image":"https://upload.wikimedia.org/wikipedia/commons/thumb/c/c3/John_F._Kennedy%2C_White_House_color_photo_portrait.jpg/330px-John_F._Kennedy%2C_White_House_color_photo_portrait.jpg","wiki":"https://en.wikipedia.org/wiki/John_F._Kennedy"},{"name":"René Descartes","birthYear":1596,"deathYear":1650,"birthLat":46.9736,"birthLng":0.6978,"deathLat":59.3294,"deathLng":18.0686,"fame":249,"image":"https://upload.wikimedia.org/wikipedia/commons/thumb/7/73/Frans_Hals_-_Portret_van_Ren%C3%A9_Descartes.jpg/330px-Frans_Hals_-_Portret_van_Ren%C3%A9_Descartes.jpg","wiki":"https://en.wikipedia.org/wiki/Ren%C3%A9_Descartes"},{"name":"Sigmund Freud","birthYear":1856,"deathYear":1939,"birthLat":49.6409,"birthLng":18.145,"deathLat":51.5072,"deathLng":-0.1275,"fame":249,"image":"https://upload.wikimedia.org/wikipedia/commons/thumb/3/36/Sigmund_Freud%2C_by_Max_Halberstadt_%28cropped%29.jpg/330px-Sigmund_Freud%2C_by_Max_Halberstadt_%28cropped%29.jpg","wiki":"https://en.wikipedia.org/wiki/Sigmund_Freud"},{"name":"Miguel de Cervantes","birthYear":1547,"deathYear":1616,"birthLat":40.4818,"birthLng":-3.3643,"deathLat":40.4169,"deathLng":-3.7033,"fame":247,"image":"https://upload.wikimedia.org/wikipedia/commons/thumb/0/09/Cervantes_J%C3%A1uregui.jpg/330px-Cervantes_J%C3%A1uregui.jpg","wiki":"https://en.wikipedia.org/wiki/Miguel_de_Cervantes"},{"name":"Augustus","birthYear":-62,"deathYear":14,"birthLat":41.8931,"birthLng":12.4828,"deathLat":40.9333,"deathLng":14.5333,"fame":246,"image":"https://upload.wikimedia.org/wikipedia/commons/thumb/b/b0/Augustus_of_Prima_Porta.jpg/330px-Augustus_of_Prima_Porta.jpg","wiki":"https://en.wikipedia.org/wiki/Augustus"},{"name":"Salvador Dalí","birthYear":1904,"deathYear":1989,"birthLat":42.2667,"birthLng":2.95,"deathLat":42.2667,"deathLng":2.95,"fame":246,"image":"https://upload.wikimedia.org/wikipedia/commons/thumb/2/24/Salvador_Dal%C3%AD_1939.jpg/330px-Salvador_Dal%C3%AD_1939.jpg","wiki":"https://en.wikipedia.org/wiki/Salvador_Dal%C3%AD"},{"name":"Charles Dickens","birthYear":1812,"deathYear":1870,"birthLat":50.803,"birthLng":-1.087,"deathLat":51.4112,"deathLng":0.4579,"fame":246,"image":"https://upload.wikimedia.org/wikipedia/commons/thumb/a/aa/Dickens_Gurney_head.jpg/330px-Dickens_Gurney_head.jpg","wiki":"https://en.wikipedia.org/wiki/Charles_Dickens"},{"name":"Martin Luther King Jr.","birthYear":1929,"deathYear":1968,"birthLat":33.7489,"birthLng":-84.3881,"deathLat":35.1461,"deathLng":-90.0519,"fame":245,"image":"https://upload.wikimedia.org/wikipedia/commons/thumb/0/05/Martin_Luther_King%2C_Jr..jpg/330px-Martin_Luther_King%2C_Jr..jpg","wiki":"https://en.wikipedia.org/wiki/Martin_Luther_King_Jr."},{"name":"Virgil","birthYear":-69,"deathYear":-18,"birthLat":45.1252,"birthLng":10.8239,"deathLat":40.6383,"deathLng":17.9458,"fame":244,"image":"https://upload.wikimedia.org/wikipedia/commons/thumb/1/15/Virgil_mosaic_in_the_Bardo_National_Museum_%28Tunis%29_%2812241228546%29.jpg/330px-Virgil_mosaic_in_the_Bardo_National_Museum_%28Tunis%29_%2812241228546%29.jpg","wiki":"https://en.wikipedia.org/wiki/Virgil"},{"name":"Marie Sklodowska-Curie","birthYear":1867,"deathYear":1934,"birthLat":52.23,"birthLng":21.0111,"deathLat":45.9392,"deathLng":6.7152,"fame":244,"image":"https://upload.wikimedia.org/wikipedia/commons/thumb/c/c8/Marie_Curie_c._1920s.jpg/330px-Marie_Curie_c._1920s.jpg","wiki":"https://en.wikipedia.org/wiki/Marie_Curie"},{"name":"Alexander Pushkin","birthYear":1799,"deathYear":1837,"birthLat":55.7506,"birthLng":37.6175,"deathLat":59.95,"deathLng":30.3167,"fame":244,"image":"https://upload.wikimedia.org/wikipedia/commons/thumb/7/7a/Orest_Kiprensky_-_%D0%9F%D0%BE%D1%80%D1%82%D1%80%D0%B5%D1%82_%D0%BF%D0%BE%D1%8D%D1%82%D0%B0_%D0%90.%D0%A1.%D0%9F%D1%83%D1%88%D0%BA%D0%B8%D0%BD%D0%B0_-_Google_Art_Project.jpg/330px-Orest_Kiprensky_-_%D0%9F%D0%BE%D1%80%D1%82%D1%80%D0%B5%D1%82_%D0%BF%D0%BE%D1%8D%D1%82%D0%B0_%D0%90.%D0%A1.%D0%9F%D1%83%D1%88%D0%BA%D0%B8%D0%BD%D0%B0_-_Google_Art_Project.jpg","wiki":"https://en.wikipedia.org/wiki/Alexander_Pushkin"},{"name":"Rabindranath Tagore","birthYear":1861,"deathYear":1941,"birthLat":22.5675,"birthLng":88.37,"deathLat":22.5675,"deathLng":88.37,"fame":244,"image":"https://upload.wikimedia.org/wikipedia/commons/thumb/6/62/1926_Rabindrath_Tagore.jpg/330px-1926_Rabindrath_Tagore.jpg","wiki":"https://en.wikipedia.org/wiki/Rabindranath_Tagore"},{"name":"Franklin Delano Roosevelt","birthYear":1882,"deathYear":1945,"birthLat":41.7847,"birthLng":-73.9333,"deathLat":32.8814,"deathLng":-84.6876,"fame":244,"image":"https://upload.wikimedia.org/wikipedia/commons/thumb/f/fd/FDR-1944-Campaign-Portrait_%283x4_retouched%2C_cropped%29.jpg/330px-FDR-1944-Campaign-Portrait_%283x4_retouched%2C_cropped%29.jpg","wiki":"https://en.wikipedia.org/wiki/Franklin_D._Roosevelt"},{"name":"Archimedes","birthYear":-286,"deathYear":-211,"birthLat":37.0833,"birthLng":15.2833,"deathLat":37.0833,"deathLng":15.2833,"fame":244,"image":"https://upload.wikimedia.org/wikipedia/commons/thumb/e/e7/Domenico-Fetti_Archimedes_1620.jpg/330px-Domenico-Fetti_Archimedes_1620.jpg","wiki":"https://en.wikipedia.org/wiki/Archimedes"},{"name":"Hans Christian Andersen","birthYear":1805,"deathYear":1875,"birthLat":55.4,"birthLng":10.3833,"deathLat":55.7039,"deathLng":12.5845,"fame":243,"image":"https://upload.wikimedia.org/wikipedia/commons/thumb/1/1c/HCA_by_Thora_Hallager_1869_crop.jpg/330px-HCA_by_Thora_Hallager_1869_crop.jpg","wiki":"https://en.wikipedia.org/wiki/Hans_Christian_Andersen"},{"name":"Christopher Columbus","birthYear":1451,"deathYear":1506,"birthLat":44.4072,"birthLng":8.934,"deathLat":41.652,"deathLng":-4.7286,"fame":242,"image":"https://upload.wikimedia.org/wikipedia/commons/thumb/c/c2/Portrait_of_a_Man%2C_Said_to_be_Christopher_Columbus.jpg/330px-Portrait_of_a_Man%2C_Said_to_be_Christopher_Columbus.jpg","wiki":"https://en.wikipedia.org/wiki/Christopher_Columbus"},{"name":"Marilyn Monroe","birthYear":1926,"deathYear":1962,"birthLat":34.0522,"birthLng":-118.2437,"deathLat":34.0519,"deathLng":-118.4744,"fame":239,"image":"https://upload.wikimedia.org/wikipedia/commons/thumb/4/4e/Monroecirca1953.jpg/330px-Monroecirca1953.jpg","wiki":"https://en.wikipedia.org/wiki/Marilyn_Monroe"},{"name":"Anton Chekhov","birthYear":1860,"deathYear":1904,"birthLat":47.2333,"birthLng":38.9,"deathLat":47.8017,"deathLng":7.6719,"fame":238,"image":"https://upload.wikimedia.org/wikipedia/commons/thumb/9/93/Anton_Chekhov_1889.jpg/330px-Anton_Chekhov_1889.jpg","wiki":"https://en.wikipedia.org/wiki/Anton_Chekhov"},{"name":"Franz Kafka","birthYear":1883,"deathYear":1924,"birthLat":50.0875,"birthLng":14.4214,"deathLat":48.3086,"deathLng":16.2692,"fame":238,"image":"https://upload.wikimedia.org/wikipedia/commons/thumb/2/26/Franz_Kafka%2C_1923.jpg/330px-Franz_Kafka%2C_1923.jpg","wiki":"https://en.wikipedia.org/wiki/Franz_Kafka"},{"name":"Pope Francis","birthYear":1936,"deathYear":2025,"birthLat":-34.6333,"birthLng":-58.4667,"deathLat":41.9006,"deathLng":12.4533,"fame":235,"image":"https://upload.wikimedia.org/wikipedia/commons/thumb/8/8b/Pope_Francis_Korea_Haemi_Castle_19_%284x5_cropped%29.jpg/330px-Pope_Francis_Korea_Haemi_Castle_19_%284x5_cropped%29.jpg","wiki":"https://en.wikipedia.org/wiki/Pope_Francis"},{"name":"Mao Zedong","birthYear":1893,"deathYear":1976,"birthLat":27.91,"birthLng":112.48,"deathLat":39.9114,"deathLng":116.3806,"fame":230,"image":"https://upload.wikimedia.org/wikipedia/commons/thumb/5/5e/Mao_Zedong_1950_Portrait_%283x4_cropped%29%282%29.jpg/330px-Mao_Zedong_1950_Portrait_%283x4_cropped%29%282%29.jpg","wiki":"https://en.wikipedia.org/wiki/Mao_Zedong"},{"name":"Jean-Jacques Rousseau","birthYear":1712,"deathYear":1778,"birthLat":46.2,"birthLng":6.15,"deathLat":49.1261,"deathLng":2.6958,"fame":229,"image":"https://upload.wikimedia.org/wikipedia/commons/thumb/4/4c/Maurice_Quentin_de_La_Tour_-_Portrait_of_Jean-Jacques_Rousseau_-_adjusted.jpg/330px-Maurice_Quentin_de_La_Tour_-_Portrait_of_Jean-Jacques_Rousseau_-_adjusted.jpg","wiki":"https://en.wikipedia.org/wiki/Jean-Jacques_Rousseau"},{"name":"Steve Jobs","birthYear":1955,"deathYear":2011,"birthLat":37.7775,"birthLng":-122.4164,"deathLat":37.4167,"deathLng":-122.1333,"fame":228,"image":"https://upload.wikimedia.org/wikipedia/commons/thumb/5/51/Steve_Jobs_Headshot_2010_%28cropped_4%29.jpg/330px-Steve_Jobs_Headshot_2010_%28cropped_4%29.jpg","wiki":"https://en.wikipedia.org/wiki/Steve_Jobs"},{"name":"Edgar Allan Poe","birthYear":1809,"deathYear":1849,"birthLat":42.3603,"birthLng":-71.0578,"deathLat":39.2864,"deathLng":-76.615,"fame":226,"image":"https://upload.wikimedia.org/wikipedia/commons/thumb/9/97/Edgar_Allan_Poe%2C_circa_1849%2C_restored%2C_squared_off.jpg/330px-Edgar_Allan_Poe%2C_circa_1849%2C_restored%2C_squared_off.jpg","wiki":"https://en.wikipedia.org/wiki/Edgar_Allan_Poe"},{"name":"Che Guevara","birthYear":1928,"deathYear":1967,"birthLat":-32.9575,"birthLng":-60.6394,"deathLat":-18.795,"deathLng":-64.2014,"fame":226,"image":"https://upload.wikimedia.org/wikipedia/commons/thumb/8/80/Che_Guevara_-_Guerrillero_Heroico_by_Alberto_Korda.jpg/330px-Che_Guevara_-_Guerrillero_Heroico_by_Alberto_Korda.jpg","wiki":"https://en.wikipedia.org/wiki/Che_Guevara"},{"name":"Augustine of Hippo","birthYear":354,"deathYear":430,"birthLat":36.2667,"birthLng":7.9333,"deathLat":36.8825,"deathLng":7.75,"fame":226,"image":"https://upload.wikimedia.org/wikipedia/commons/thumb/e/ea/Saint_Augustine_by_Philippe_de_Champaigne.jpg/330px-Saint_Augustine_by_Philippe_de_Champaigne.jpg","wiki":"https://en.wikipedia.org/wiki/Augustine_of_Hippo"},{"name":"Niccolò Machiavelli","birthYear":1469,"deathYear":1527,"birthLat":43.7714,"birthLng":11.2542,"deathLat":43.6828,"deathLng":11.1972,"fame":225,"image":"https://upload.wikimedia.org/wikipedia/commons/thumb/e/e2/Portrait_of_Niccol%C3%B2_Machiavelli_by_Santi_di_Tito.jpg/330px-Portrait_of_Niccol%C3%B2_Machiavelli_by_Santi_di_Tito.jpg","wiki":"https://en.wikipedia.org/wiki/Niccol%C3%B2_Machiavelli"},{"name":"Molière","birthYear":1622,"deathYear":1673,"birthLat":48.8567,"birthLng":2.3522,"deathLat":48.8567,"deathLng":2.3522,"fame":225,"image":"https://upload.wikimedia.org/wikipedia/commons/thumb/d/d1/Pierre_Mignard_-_Portrait_de_Jean-Baptiste_Poquelin_dit_Moli%C3%A8re_%281622-1673%29_-_Google_Art_Project_%28cropped%29.jpg/330px-Pierre_Mignard_-_Portrait_de_Jean-Baptiste_Poquelin_dit_Moli%C3%A8re_%281622-1673%29_-_Google_Art_Project_%28cropped%29.jpg","wiki":"https://en.wikipedia.org/wiki/Moli%C3%A8re"},{"name":"Thomas Jefferson","birthYear":1743,"deathYear":1826,"birthLat":38.0131,"birthLng":-78.3956,"deathLat":38.0103,"deathLng":-78.4523,"fame":222,"image":"https://upload.wikimedia.org/wikipedia/commons/thumb/0/07/Official_Presidential_portrait_of_Thomas_Jefferson_%28by_Rembrandt_Peale%2C_1800%29.jpg/330px-Official_Presidential_portrait_of_Thomas_Jefferson_%28by_Rembrandt_Peale%2C_1800%29.jpg","wiki":"https://en.wikipedia.org/wiki/Thomas_Jefferson"},{"name":"Oscar Wilde","birthYear":1854,"deathYear":1900,"birthLat":53.3497,"birthLng":-6.2603,"deathLat":48.8505,"deathLng":2.3322,"fame":219,"image":"https://upload.wikimedia.org/wikipedia/commons/thumb/a/a2/Oscar_Wilde_by_Napoleon_Sarony._Three-quarter-length_photograph%2C_seated_%28cropped%29.jpg/330px-Oscar_Wilde_by_Napoleon_Sarony._Three-quarter-length_photograph%2C_seated_%28cropped%29.jpg","wiki":"https://en.wikipedia.org/wiki/Oscar_Wilde"},{"name":"Adam Smith","birthYear":1723,"deathYear":1790,"birthLat":56.1107,"birthLng":-3.1674,"deathLat":55.9533,"deathLng":-3.1892,"fame":219,"image":"https://upload.wikimedia.org/wikipedia/commons/thumb/4/43/Adam_Smith_The_Muir_portrait.jpg/330px-Adam_Smith_The_Muir_portrait.jpg","wiki":"https://en.wikipedia.org/wiki/Adam_Smith"},{"name":"Neil Armstrong","birthYear":1930,"deathYear":2012,"birthLat":40.5692,"birthLng":-84.1942,"deathLat":39.1,"deathLng":-84.5125,"fame":218,"image":"https://upload.wikimedia.org/wikipedia/commons/thumb/0/0d/Neil_Armstrong_pose.jpg/330px-Neil_Armstrong_pose.jpg","wiki":"https://en.wikipedia.org/wiki/Neil_Armstrong"},{"name":"Otto von Bismarck","birthYear":1815,"deathYear":1898,"birthLat":52.5786,"birthLng":12.0397,"deathLat":53.5295,"deathLng":10.3403,"fame":218,"image":"https://upload.wikimedia.org/wikipedia/commons/thumb/5/59/Otto_von_Bismarck_1885_%28cropped%29.jpg/330px-Otto_von_Bismarck_1885_%28cropped%29.jpg","wiki":"https://en.wikipedia.org/wiki/Otto_von_Bismarck"},{"name":"Charles de Gaulle","birthYear":1890,"deathYear":1970,"birthLat":50.6319,"birthLng":3.0575,"deathLat":48.2233,"deathLng":4.8858,"fame":217,"image":"https://upload.wikimedia.org/wikipedia/commons/thumb/2/27/De_Gaulle-OWI.jpg/330px-De_Gaulle-OWI.jpg","wiki":"https://en.wikipedia.org/wiki/Charles_de_Gaulle"},{"name":"Lord Byron","birthYear":1788,"deathYear":1824,"birthLat":51.4975,"birthLng":-0.1372,"deathLat":38.3686,"deathLng":21.4289,"fame":217,"image":"https://upload.wikimedia.org/wikipedia/commons/thumb/3/3c/Byron_1813_by_Phillips.jpg/330px-Byron_1813_by_Phillips.jpg","wiki":"https://en.wikipedia.org/wiki/Lord_Byron"},{"name":"Elvis Presley","birthYear":1935,"deathYear":1977,"birthLat":34.2576,"birthLng":-88.7034,"deathLat":35.1461,"deathLng":-90.0519,"fame":216,"image":"https://upload.wikimedia.org/wikipedia/commons/thumb/9/99/Elvis_Presley_promoting_Jailhouse_Rock.jpg/330px-Elvis_Presley_promoting_Jailhouse_Rock.jpg","wiki":"https://en.wikipedia.org/wiki/Elvis_Presley"},{"name":"Benjamin Franklin","birthYear":1706,"deathYear":1790,"birthLat":42.3603,"birthLng":-71.0578,"deathLat":39.9528,"deathLng":-75.1636,"fame":216,"image":"https://upload.wikimedia.org/wikipedia/commons/thumb/8/87/Joseph_Siffrein_Duplessis_-_Benjamin_Franklin_-_Google_Art_Project.jpg/330px-Joseph_Siffrein_Duplessis_-_Benjamin_Franklin_-_Google_Art_Project.jpg","wiki":"https://en.wikipedia.org/wiki/Benjamin_Franklin"},{"name":"Nikola Tesla","birthYear":1856,"deathYear":1943,"birthLat":44.5643,"birthLng":15.3181,"deathLat":40.7128,"deathLng":-74.0061,"fame":215,"image":"https://upload.wikimedia.org/wikipedia/commons/thumb/7/79/Tesla_circa_1890.jpeg/330px-Tesla_circa_1890.jpeg","wiki":"https://en.wikipedia.org/wiki/Nikola_Tesla"},{"name":"Sophocles","birthYear":-495,"deathYear":-405,"birthLat":37.9958,"birthLng":23.7153,"deathLat":37.9842,"deathLng":23.7281,"fame":213,"image":"https://upload.wikimedia.org/wikipedia/commons/thumb/1/19/Sophocles_pushkin.jpg/330px-Sophocles_pushkin.jpg","wiki":"https://en.wikipedia.org/wiki/Sophocles"},{"name":"Carl Linnaeus","birthYear":1707,"deathYear":1778,"birthLat":56.618,"birthLng":14.202,"deathLat":59.8175,"deathLng":17.7764,"fame":212,"image":"https://upload.wikimedia.org/wikipedia/commons/thumb/3/3c/Carl_von_Linn%C3%A9%2C_1707-1778%2C_botanist%2C_professor_%28Alexander_Roslin%29_-_Nationalmuseum_-_15723_%28cropped%29.tif/lossy-page1-330px-Carl_von_Linn%C3%A9%2C_1707-1778%2C_botanist%2C_professor_%28Alexander_Roslin%29_-_Nationalmuseum_-_15723_%28cropped%29.tif.jpg","wiki":"https://en.wikipedia.org/wiki/Carl_Linnaeus"},{"name":"Nicolaus Copernicus","birthYear":1473,"deathYear":1543,"birthLat":53.0144,"birthLng":18.6014,"deathLat":54.3583,"deathLng":19.6833,"fame":212,"image":"https://upload.wikimedia.org/wikipedia/commons/thumb/e/e2/Nikolaus_Kopernikus_MOT.jpg/330px-Nikolaus_Kopernikus_MOT.jpg","wiki":"https://en.wikipedia.org/wiki/Nicolaus_Copernicus"},{"name":"Walt Disney","birthYear":1901,"deathYear":1966,"birthLat":41.8819,"birthLng":-87.6278,"deathLat":34.1803,"deathLng":-118.3283,"fame":211,"image":"https://upload.wikimedia.org/wikipedia/commons/thumb/5/50/Walt_Disney_1946_%28cropped2%29.JPG/330px-Walt_Disney_1946_%28cropped2%29.JPG","wiki":"https://en.wikipedia.org/wiki/Walt_Disney"},{"name":"George Orwell","birthYear":1903,"deathYear":1950,"birthLat":26.65,"birthLng":84.9167,"deathLat":51.5072,"deathLng":-0.1275,"fame":210,"image":"https://upload.wikimedia.org/wikipedia/commons/thumb/7/7e/George_Orwell_press_photo.jpg/330px-George_Orwell_press_photo.jpg","wiki":"https://en.wikipedia.org/wiki/George_Orwell"},{"name":"Louis Pasteur","birthYear":1822,"deathYear":1895,"birthLat":47.0922,"birthLng":5.4897,"deathLat":48.835,"deathLng":2.1785,"fame":210,"image":"https://upload.wikimedia.org/wikipedia/commons/thumb/a/a6/Louis_Pasteur%2C_foto_av_Paul_Nadar%2C_Crisco_edit.jpg/330px-Louis_Pasteur%2C_foto_av_Paul_Nadar%2C_Crisco_edit.jpg","wiki":"https://en.wikipedia.org/wiki/Louis_Pasteur"},{"name":"Marco Polo","birthYear":1254,"deathYear":1324,"birthLat":45.4397,"birthLng":12.3319,"deathLat":45.4397,"deathLng":12.3319,"fame":210,"image":"https://upload.wikimedia.org/wikipedia/commons/thumb/3/3d/Marco_Polo_-_costume_tartare.jpg/330px-Marco_Polo_-_costume_tartare.jpg","wiki":"https://en.wikipedia.org/wiki/Marco_Polo"},{"name":"Pythagoras","birthYear":-582,"deathYear":-490,"birthLat":37.6894,"birthLng":26.9431,"deathLat":40.3831,"deathLng":16.8228,"fame":207,"image":"https://upload.wikimedia.org/wikipedia/commons/thumb/e/e0/Pythagoras_in_the_Roman_Forum%2C_Colosseum.jpg/330px-Pythagoras_in_the_Roman_Forum%2C_Colosseum.jpg","wiki":"https://en.wikipedia.org/wiki/Pythagoras"},{"name":"Ernest Hemingway","birthYear":1899,"deathYear":1961,"birthLat":41.8883,"birthLng":-87.7894,"deathLat":43.6667,"deathLng":-114.3667,"fame":207,"image":"https://upload.wikimedia.org/wikipedia/commons/thumb/2/28/ErnestHemingway.jpg/330px-ErnestHemingway.jpg","wiki":"https://en.wikipedia.org/wiki/Ernest_Hemingway"},{"name":"Margaret Thatcher","birthYear":1925,"deathYear":2013,"birthLat":52.9181,"birthLng":-0.6381,"deathLat":51.5072,"deathLng":-0.1414,"fame":207,"image":"https://upload.wikimedia.org/wikipedia/commons/thumb/4/47/Margaret_Thatcher_stock_portrait_%282%29_%28cropped%29.jpg/330px-Margaret_Thatcher_stock_portrait_%282%29_%28cropped%29.jpg","wiki":"https://en.wikipedia.org/wiki/Margaret_Thatcher"},{"name":"Thomas Aquinas","birthYear":1225,"deathYear":1274,"birthLat":41.5478,"birthLng":13.6704,"deathLat":41.4381,"deathLng":13.1957,"fame":207,"image":"https://upload.wikimedia.org/wikipedia/commons/thumb/0/0a/St-thomas-aquinasFXD.jpg/330px-St-thomas-aquinasFXD.jpg","wiki":"https://en.wikipedia.org/wiki/Thomas_Aquinas"},{"name":"Genghis Khan","birthYear":1162,"deathYear":1227,"birthLat":49.0218,"birthLng":111.6247,"deathLat":38.485,"deathLng":106.225,"fame":206,"image":"https://upload.wikimedia.org/wikipedia/commons/thumb/3/35/YuanEmperorAlbumGenghisPortrait.jpg/330px-YuanEmperorAlbumGenghisPortrait.jpg","wiki":"https://en.wikipedia.org/wiki/Genghis_Khan"},{"name":"John Locke","birthYear":1632,"deathYear":1704,"birthLat":51.3617,"birthLng":-2.7606,"deathLat":51.756,"deathLng":0.212,"fame":206,"image":"https://upload.wikimedia.org/wikipedia/commons/thumb/d/db/Godfrey_Kneller_-_Portrait_of_John_Locke_%28Hermitage%29.jpg/330px-Godfrey_Kneller_-_Portrait_of_John_Locke_%28Hermitage%29.jpg","wiki":"https://en.wikipedia.org/wiki/John_Locke"},{"name":"Fidel Castro","birthYear":1926,"deathYear":2016,"birthLat":20.5268,"birthLng":-75.8947,"deathLat":23.1367,"deathLng":-82.3589,"fame":205,"image":"https://upload.wikimedia.org/wikipedia/commons/thumb/4/4a/Fidel_Castro_1950s.jpg/330px-Fidel_Castro_1950s.jpg","wiki":"https://en.wikipedia.org/wiki/Fidel_Castro"},{"name":"Albert Camus","birthYear":1913,"deathYear":1960,"birthLat":36.6833,"birthLng":7.75,"deathLat":48.3244,"deathLng":3.0817,"fame":205,"image":"https://upload.wikimedia.org/wikipedia/commons/thumb/0/08/Albert_Camus%2C_gagnant_de_prix_Nobel%2C_portrait_en_buste%2C_pos%C3%A9_au_bureau%2C_faisant_face_%C3%A0_gauche%2C_cigarette_de_tabagisme.jpg/330px-Albert_Camus%2C_gagnant_de_prix_Nobel%2C_portrait_en_buste%2C_pos%C3%A9_au_bureau%2C_faisant_face_%C3%A0_gauche%2C_cigarette_de_tabagisme.jpg","wiki":"https://en.wikipedia.org/wiki/Albert_Camus"},{"name":"Richard Wagner","birthYear":1813,"deathYear":1883,"birthLat":51.3396,"birthLng":12.3713,"deathLat":45.4397,"deathLng":12.3319,"fame":204,"image":"https://upload.wikimedia.org/wikipedia/commons/thumb/9/9d/RichardWagner.jpg/330px-RichardWagner.jpg","wiki":"https://en.wikipedia.org/wiki/Richard_Wagner"},{"name":"Rembrandt","birthYear":1606,"deathYear":1669,"birthLat":52.16,"birthLng":4.49,"deathLat":52.3667,"deathLng":4.8833,"fame":204,"image":"https://upload.wikimedia.org/wikipedia/commons/thumb/b/bd/Rembrandt_van_Rijn_-_Self-Portrait_-_Google_Art_Project.jpg/330px-Rembrandt_van_Rijn_-_Self-Portrait_-_Google_Art_Project.jpg","wiki":"https://en.wikipedia.org/wiki/Rembrandt"},{"name":"James Joyce","birthYear":1882,"deathYear":1941,"birthLat":53.3117,"birthLng":-6.2743,"deathLat":47.3744,"deathLng":8.5411,"fame":204,"image":"https://upload.wikimedia.org/wikipedia/commons/thumb/1/1e/Revolutionary_Joyce_Better_Contrast.jpg/330px-Revolutionary_Joyce_Better_Contrast.jpg","wiki":"https://en.wikipedia.org/wiki/James_Joyce"},{"name":"Gottfried Wilhelm Leibniz","birthYear":1646,"deathYear":1716,"birthLat":51.3396,"birthLng":12.3713,"deathLat":52.3744,"deathLng":9.7386,"fame":204,"image":"https://upload.wikimedia.org/wikipedia/commons/thumb/8/8d/Christoph_Bernhard_Francke_-_Bildnis_des_Philosophen_Leibniz_%28ca._1695%29.jpg/330px-Christoph_Bernhard_Francke_-_Bildnis_des_Philosophen_Leibniz_%28ca._1695%29.jpg","wiki":"https://en.wikipedia.org/wiki/Gottfried_Wilhelm_Leibniz"},{"name":"John Paul II","birthYear":1920,"deathYear":2005,"birthLat":49.8833,"birthLng":19.5,"deathLat":41.8931,"deathLng":12.4828,"fame":203,"image":"https://upload.wikimedia.org/wikipedia/commons/thumb/9/9c/ADAMELLO_-_PAPA_-_Giovanni_Paolo_II_-_panoramio_%28cropped%29.jpg/330px-ADAMELLO_-_PAPA_-_Giovanni_Paolo_II_-_panoramio_%28cropped%29.jpg","wiki":"https://en.wikipedia.org/wiki/Pope_John_Paul_II"},{"name":"Cicero","birthYear":-106,"deathYear":-42,"birthLat":41.6471,"birthLng":13.6115,"deathLat":41.2564,"deathLng":13.6069,"fame":202,"image":"https://upload.wikimedia.org/wikipedia/commons/thumb/8/8a/Bust_of_Cicero_%281st-cent._BC%29_-_Palazzo_Nuovo_-_Musei_Capitolini_-_Rome_2016.jpg/330px-Bust_of_Cicero_%281st-cent._BC%29_-_Palazzo_Nuovo_-_Musei_Capitolini_-_Rome_2016.jpg","wiki":"https://en.wikipedia.org/wiki/Cicero"},{"name":"Yuri Gagarin","birthYear":1934,"deathYear":1968,"birthLat":55.6706,"birthLng":35.0497,"deathLat":56.0667,"deathLng":39.05,"fame":202,"image":"https://upload.wikimedia.org/wikipedia/commons/thumb/d/d8/Yuri_Gagarin_with_awards_%28cropped%29_2.jpg/330px-Yuri_Gagarin_with_awards_%28cropped%29_2.jpg","wiki":"https://en.wikipedia.org/wiki/Yuri_Gagarin"},{"name":"J. R. R. Tolkien","birthYear":1892,"deathYear":1973,"birthLat":-29.1,"birthLng":26.2167,"deathLat":50.72,"deathLng":-1.88,"fame":202,"image":"https://upload.wikimedia.org/wikipedia/commons/thumb/d/d4/J._R._R._Tolkien%2C_ca._1925.jpg/330px-J._R._R._Tolkien%2C_ca._1925.jpg","wiki":"https://en.wikipedia.org/wiki/J._R._R._Tolkien"},{"name":"Benedict XVI","birthYear":1927,"deathYear":2022,"birthLat":48.2533,"birthLng":12.8431,"deathLat":41.904,"deathLng":12.453,"fame":201,"image":"https://upload.wikimedia.org/wikipedia/commons/thumb/9/98/Benedykt_XVI_%282010-10-17%29_2.jpg/330px-Benedykt_XVI_%282010-10-17%29_2.jpg","wiki":"https://en.wikipedia.org/wiki/Pope_Benedict_XVI"},{"name":"Jane Austen","birthYear":1775,"deathYear":1817,"birthLat":51.2303,"birthLng":-1.2189,"deathLat":51.0633,"deathLng":-1.3086,"fame":201,"image":"https://upload.wikimedia.org/wikipedia/commons/thumb/c/cc/CassandraAusten-JaneAusten%28c.1810%29_hires.jpg/330px-CassandraAusten-JaneAusten%28c.1810%29_hires.jpg","wiki":"https://en.wikipedia.org/wiki/Jane_Austen"},{"name":"Frédéric Chopin","birthYear":1810,"deathYear":1849,"birthLat":52.25,"birthLng":20.3167,"deathLat":48.8567,"deathLng":2.3522,"fame":200,"image":"https://upload.wikimedia.org/wikipedia/commons/thumb/e/e8/Frederic_Chopin_photo.jpeg/330px-Frederic_Chopin_photo.jpeg","wiki":"https://en.wikipedia.org/wiki/Fr%C3%A9d%C3%A9ric_Chopin"},{"name":"Benito Mussolini","birthYear":1883,"deathYear":1945,"birthLat":44.1042,"birthLng":11.985,"deathLat":45.9818,"deathLng":9.2043,"fame":200,"image":"https://upload.wikimedia.org/wikipedia/commons/thumb/8/8a/Mussolini_mezzobusto.jpg/330px-Mussolini_mezzobusto.jpg","wiki":"https://en.wikipedia.org/wiki/Benito_Mussolini"},{"name":"Mikhail Gorbachev","birthYear":1931,"deathYear":2022,"birthLat":45.9175,"birthLng":41.3072,"deathLat":55.7464,"deathLng":37.3892,"fame":200,"image":"https://upload.wikimedia.org/wikipedia/commons/thumb/5/57/RIAN_archive_850809_General_Secretary_of_the_CPSU_CC_M._Gorbachev_%28crop%29.jpg/330px-RIAN_archive_850809_General_Secretary_of_the_CPSU_CC_M._Gorbachev_%28crop%29.jpg","wiki":"https://en.wikipedia.org/wiki/Mikhail_Gorbachev"},{"name":"Ovid","birthYear":-42,"deathYear":17,"birthLat":42.048,"birthLng":13.9262,"deathLat":44.1732,"deathLng":28.6383,"fame":200,"image":"https://upload.wikimedia.org/wikipedia/commons/thumb/c/ca/Ovid_by_an_anonymous_sculptor.jpg/330px-Ovid_by_an_anonymous_sculptor.jpg","wiki":"https://en.wikipedia.org/wiki/Ovid"},{"name":"Stephen Hawking","birthYear":1942,"deathYear":2018,"birthLat":51.7519,"birthLng":-1.2578,"deathLat":52.2081,"deathLng":0.1225,"fame":199,"image":"https://upload.wikimedia.org/wikipedia/commons/e/eb/Stephen_Hawking.StarChild.jpg","wiki":"https://en.wikipedia.org/wiki/Stephen_Hawking"},{"name":"Marlene Dietrich","birthYear":1901,"deathYear":1992,"birthLat":52.4839,"birthLng":13.3622,"deathLat":48.8742,"deathLng":2.3111,"fame":199,"image":"https://upload.wikimedia.org/wikipedia/commons/thumb/2/2d/Marlene_Dietrich_in_No_Highway_%281951%29_%28Cropped%29.png/330px-Marlene_Dietrich_in_No_Highway_%281951%29_%28Cropped%29.png","wiki":"https://en.wikipedia.org/wiki/Marlene_Dietrich"},{"name":"Carl Friedrich Gauss","birthYear":1777,"deathYear":1855,"birthLat":52.2692,"birthLng":10.5211,"deathLat":51.5339,"deathLng":9.9356,"fame":199,"image":"https://upload.wikimedia.org/wikipedia/commons/thumb/e/ec/Carl_Friedrich_Gauss_1840_by_Jensen.jpg/330px-Carl_Friedrich_Gauss_1840_by_Jensen.jpg","wiki":"https://en.wikipedia.org/wiki/Carl_Friedrich_Gauss"},{"name":"Jimmy Carter","birthYear":1924,"deathYear":2024,"birthLat":32.0378,"birthLng":-84.3899,"deathLat":32.0356,"deathLng":-84.4017,"fame":198,"image":"https://upload.wikimedia.org/wikipedia/commons/thumb/6/6a/Jimmy_Carter_Official_Portrait2_%283x4_cropped%29.jpg/330px-Jimmy_Carter_Official_Portrait2_%283x4_cropped%29.jpg","wiki":"https://en.wikipedia.org/wiki/Jimmy_Carter"},{"name":"Mother Teresa","birthYear":1910,"deathYear":1997,"birthLat":41.9961,"birthLng":21.4317,"deathLat":22.5675,"deathLng":88.37,"fame":198,"image":"https://upload.wikimedia.org/wikipedia/commons/thumb/d/d6/Mother_Teresa_1.jpg/330px-Mother_Teresa_1.jpg","wiki":"https://en.wikipedia.org/wiki/Mother_Teresa"},{"name":"Henry Ford","birthYear":1863,"deathYear":1947,"birthLat":42.3167,"birthLng":-83.15,"deathLat":42.3113,"deathLng":-83.2135,"fame":198,"image":"https://upload.wikimedia.org/wikipedia/commons/thumb/2/27/Henry_Ford_portrait_1915_original_%283x4_cropped%29.png/330px-Henry_Ford_portrait_1915_original_%283x4_cropped%29.png","wiki":"https://en.wikipedia.org/wiki/Henry_Ford"},{"name":"Jean-Paul Sartre","birthYear":1905,"deathYear":1980,"birthLat":48.8567,"birthLng":2.3522,"deathLat":48.833,"deathLng":2.3269,"fame":198,"image":"https://upload.wikimedia.org/wikipedia/commons/thumb/e/e9/Jean_Paul_Sartre_1965.jpg/330px-Jean_Paul_Sartre_1965.jpg","wiki":"https://en.wikipedia.org/wiki/Jean-Paul_Sartre"},{"name":"Herodotus","birthYear":-483,"deathYear":-424,"birthLat":37.0378,"birthLng":27.4242,"deathLat":40.76,"deathLng":22.5256,"fame":197,"image":"https://upload.wikimedia.org/wikipedia/commons/thumb/6/6d/Marble_bust_of_Herodotos_MET_DT11742_%28cropped%29.jpg/330px-Marble_bust_of_Herodotos_MET_DT11742_%28cropped%29.jpg","wiki":"https://en.wikipedia.org/wiki/Herodotus"},{"name":"Le Corbusier","birthYear":1887,"deathYear":1965,"birthLat":47.0996,"birthLng":6.8296,"deathLat":43.7572,"deathLng":7.4742,"fame":197,"image":"https://upload.wikimedia.org/wikipedia/commons/thumb/c/c8/Le_Corbusier_%281964%29.jpg/330px-Le_Corbusier_%281964%29.jpg","wiki":"https://en.wikipedia.org/wiki/Le_Corbusier"},{"name":"Li Bai","birthYear":701,"deathYear":762,"birthLat":31.7761,"birthLng":104.7406,"deathLat":31.5511,"deathLng":118.4889,"fame":197,"image":"https://upload.wikimedia.org/wikipedia/commons/thumb/4/4c/LiBai.jpg/330px-LiBai.jpg","wiki":"https://en.wikipedia.org/wiki/Li_Bai"},{"name":"Friedrich Engels","birthYear":1820,"deathYear":1895,"birthLat":51.2667,"birthLng":7.2,"deathLat":51.5072,"deathLng":-0.1275,"fame":196,"image":"https://upload.wikimedia.org/wikipedia/commons/thumb/2/21/Friedrich_Engels_portrait_%28cropped%29.jpg/330px-Friedrich_Engels_portrait_%28cropped%29.jpg","wiki":"https://en.wikipedia.org/wiki/Friedrich_Engels"},{"name":"Qin Shi Huang","birthYear":-258,"deathYear":-209,"birthLat":36.6116,"birthLng":114.4894,"deathLat":37.0718,"deathLng":115.139,"fame":196,"image":"https://upload.wikimedia.org/wikipedia/commons/thumb/3/3f/QinShiHuang19century.jpg/330px-QinShiHuang19century.jpg","wiki":"https://en.wikipedia.org/wiki/Qin_Shi_Huang"},{"name":"Ferdinand Magellan","birthYear":1480,"deathYear":1521,"birthLat":41.8,"birthLng":-8.4167,"deathLat":10.3,"deathLng":123.9667,"fame":195,"image":"https://upload.wikimedia.org/wikipedia/commons/thumb/9/9c/Ferdinand_Magellan.jpg/330px-Ferdinand_Magellan.jpg","wiki":"https://en.wikipedia.org/wiki/Ferdinand_Magellan"},{"name":"Harry S. Truman","birthYear":1884,"deathYear":1972,"birthLat":37.4936,"birthLng":-94.2722,"deathLat":39.05,"deathLng":-94.5833,"fame":194,"image":"https://upload.wikimedia.org/wikipedia/commons/thumb/0/0b/TRUMAN_58-766-06_%28cropped%29.jpg/330px-TRUMAN_58-766-06_%28cropped%29.jpg","wiki":"https://en.wikipedia.org/wiki/Harry_S._Truman"},{"name":"Blaise Pascal","birthYear":1623,"deathYear":1662,"birthLat":45.7784,"birthLng":3.0853,"deathLat":48.8567,"deathLng":2.3522,"fame":194,"image":"https://upload.wikimedia.org/wikipedia/commons/thumb/9/98/Blaise_Pascal_Versailles.JPG/330px-Blaise_Pascal_Versailles.JPG","wiki":"https://en.wikipedia.org/wiki/Blaise_Pascal"},{"name":"George H. W. Bush","birthYear":1924,"deathYear":2018,"birthLat":42.25,"birthLng":-71.0667,"deathLat":29.7628,"deathLng":-95.3831,"fame":194,"image":"https://upload.wikimedia.org/wikipedia/commons/thumb/2/2d/George_H._W._Bush_presidential_portrait_%28cropped_5%29.jpg/330px-George_H._W._Bush_presidential_portrait_%28cropped_5%29.jpg","wiki":"https://en.wikipedia.org/wiki/George_H._W._Bush"},{"name":"Paul the Apostle","birthYear":5,"deathYear":66,"birthLat":36.9167,"birthLng":34.9,"deathLat":41.8931,"deathLng":12.4828,"fame":194,"image":"https://upload.wikimedia.org/wikipedia/commons/thumb/4/4a/Fresco_of_Saint_Paul_at_Ephesus.jpg/330px-Fresco_of_Saint_Paul_at_Ephesus.jpg","wiki":"https://en.wikipedia.org/wiki/Paul_the_Apostle"},{"name":"Agatha Christie","birthYear":1890,"deathYear":1976,"birthLat":50.4746,"birthLng":-3.5424,"deathLat":51.599,"deathLng":-1.125,"fame":193,"image":"https://upload.wikimedia.org/wikipedia/commons/thumb/f/f7/Agatha_Christie_in_Nederland_%28detectiveschrijfster%29%2C_bij_aankomst_op_Schiphol_me%2C_Bestanddeelnr_916-8898_%28cropped%29.jpg/330px-Agatha_Christie_in_Nederland_%28detectiveschrijfster%29%2C_bij_aankomst_op_Schiphol_me%2C_Bestanddeelnr_916-8898_%28cropped%29.jpg","wiki":"https://en.wikipedia.org/wiki/Agatha_Christie"},{"name":"Sarah Bernhardt","birthYear":1844,"deathYear":1923,"birthLat":48.8567,"birthLng":2.3522,"deathLat":48.8822,"deathLng":2.3078,"fame":193,"image":"https://upload.wikimedia.org/wikipedia/commons/thumb/d/d6/Sarah_Bernhardt_by_Sarony_cph.3a38656.jpg/330px-Sarah_Bernhardt_by_Sarony_cph.3a38656.jpg","wiki":"https://en.wikipedia.org/wiki/Sarah_Bernhardt"},{"name":"Raphael","birthYear":1483,"deathYear":1520,"birthLat":43.7252,"birthLng":12.6372,"deathLat":41.8931,"deathLng":12.4828,"fame":193,"image":"https://upload.wikimedia.org/wikipedia/commons/thumb/f/f6/Raffaello_Sanzio.jpg/330px-Raffaello_Sanzio.jpg","wiki":"https://en.wikipedia.org/wiki/Raphael"},{"name":"Pyotr Ilyich Tchaikovsky","birthYear":1840,"deathYear":1893,"birthLat":57.05,"birthLng":54.0,"deathLat":59.9357,"deathLng":30.3126,"fame":193,"image":"https://upload.wikimedia.org/wikipedia/commons/thumb/2/20/Tchaikovsky_by_Reutlinger_%28cropped%29.jpg/330px-Tchaikovsky_by_Reutlinger_%28cropped%29.jpg","wiki":"https://en.wikipedia.org/wiki/Pyotr_Ilyich_Tchaikovsky"},{"name":"Avicenna","birthYear":980,"deathYear":1037,"birthLat":39.9944,"birthLng":64.3792,"deathLat":34.8,"deathLng":48.5167,"fame":193,"image":"https://upload.wikimedia.org/wikipedia/commons/thumb/1/1a/Avicenna_Bust%2C_left_profile_%28cropped%29.jpg/330px-Avicenna_Bust%2C_left_profile_%28cropped%29.jpg","wiki":"https://en.wikipedia.org/wiki/Avicenna"},{"name":"Alfred Nobel","birthYear":1833,"deathYear":1896,"birthLat":59.3304,"birthLng":18.0706,"deathLat":43.8175,"deathLng":7.775,"fame":192,"image":"https://upload.wikimedia.org/wikipedia/commons/thumb/0/07/Alfred_Nobel3.jpg/330px-Alfred_Nobel3.jpg","wiki":"https://en.wikipedia.org/wiki/Alfred_Nobel"},{"name":"Joan of Arc","birthYear":1412,"deathYear":1431,"birthLat":48.4425,"birthLng":5.675,"deathLat":49.4431,"deathLng":1.1025,"fame":192,"image":"https://upload.wikimedia.org/wikipedia/commons/thumb/c/c3/Joan_of_Arc_miniature_graded.jpg/330px-Joan_of_Arc_miniature_graded.jpg","wiki":"https://en.wikipedia.org/wiki/Joan_of_Arc"},{"name":"Georg Wilhelm Friedrich Hegel","birthYear":1770,"deathYear":1831,"birthLat":48.7775,"birthLng":9.18,"deathLat":52.5167,"deathLng":13.3833,"fame":192,"image":"https://upload.wikimedia.org/wikipedia/commons/thumb/c/cc/Jakob_Schlesinger_-_Hegel_1831.jpg/330px-Jakob_Schlesinger_-_Hegel_1831.jpg","wiki":"https://en.wikipedia.org/wiki/Georg_Wilhelm_Friedrich_Hegel"},{"name":"Theodore Roosevelt","birthYear":1858,"deathYear":1919,"birthLat":40.7283,"birthLng":-73.9942,"deathLat":40.8856,"deathLng":-73.4975,"fame":191,"image":"https://upload.wikimedia.org/wikipedia/commons/thumb/7/7d/Theodore_Roosevelt_by_the_Pach_Bros_%284x5_cropped%29.jpg/330px-Theodore_Roosevelt_by_the_Pach_Bros_%284x5_cropped%29.jpg","wiki":"https://en.wikipedia.org/wiki/Theodore_Roosevelt"},{"name":"Jorge Luis Borges","birthYear":1899,"deathYear":1986,"birthLat":-34.5997,"birthLng":-58.3819,"deathLat":46.2,"deathLng":6.15,"fame":191,"image":"https://upload.wikimedia.org/wikipedia/commons/thumb/8/89/Jorge_Luis_Borges_1951%2C_by_Grete_Stern_%28full%29.jpg/330px-Jorge_Luis_Borges_1951%2C_by_Grete_Stern_%28full%29.jpg","wiki":"https://en.wikipedia.org/wiki/Jorge_Luis_Borges"},{"name":"Jawaharlal Nehru","birthYear":1889,"deathYear":1964,"birthLat":25.45,"birthLng":81.85,"deathLat":28.6139,"deathLng":77.2089,"fame":190,"image":"https://upload.wikimedia.org/wikipedia/commons/9/97/Nehru_in_the_Netherlands%2C_1957.jpg","wiki":"https://en.wikipedia.org/wiki/Jawaharlal_Nehru"},{"name":"Alan Turing","birthYear":1912,"deathYear":1954,"birthLat":51.5274,"birthLng":-0.1899,"deathLat":53.325,"deathLng":-2.239,"fame":189,"image":"https://upload.wikimedia.org/wikipedia/commons/thumb/c/ce/Alan_turing_header.jpg/330px-Alan_turing_header.jpg","wiki":"https://en.wikipedia.org/wiki/Alan_Turing"},{"name":"Richard Nixon","birthYear":1913,"deathYear":1994,"birthLat":33.8886,"birthLng":-117.8132,"deathLat":40.7283,"deathLng":-73.9942,"fame":189,"image":"https://upload.wikimedia.org/wikipedia/commons/thumb/2/2c/Richard_Nixon_presidential_portrait_%281%29.jpg/330px-Richard_Nixon_presidential_portrait_%281%29.jpg","wiki":"https://en.wikipedia.org/wiki/Richard_Nixon"},{"name":"Sung Jae-gi","birthYear":1967,"deathYear":2013,"birthLat":35.8717,"birthLng":128.6017,"deathLat":37.56,"deathLng":126.99,"fame":188,"image":"https://upload.wikimedia.org/wikipedia/commons/thumb/b/b5/Sungjaegi2013.png/330px-Sungjaegi2013.png","wiki":"https://en.wikipedia.org/wiki/Sung_Jae-gi"},{"name":"Woodrow Wilson","birthYear":1856,"deathYear":1924,"birthLat":38.1581,"birthLng":-79.0764,"deathLat":38.895,"deathLng":-77.0367,"fame":188,"image":"https://upload.wikimedia.org/wikipedia/commons/thumb/9/96/President_Woodrow_Wilson_Harris_%26_Ewing_%283x4_cropped_b%29.jpg/330px-President_Woodrow_Wilson_Harris_%26_Ewing_%283x4_cropped_b%29.jpg","wiki":"https://en.wikipedia.org/wiki/Woodrow_Wilson"},{"name":"Rudyard Kipling","birthYear":1865,"deathYear":1936,"birthLat":19.0758,"birthLng":72.8775,"deathLat":51.5072,"deathLng":-0.1275,"fame":188,"image":"https://upload.wikimedia.org/wikipedia/commons/thumb/1/1c/Rudyard_Kipling_%28portrait%29.jpg/330px-Rudyard_Kipling_%28portrait%29.jpg","wiki":"https://en.wikipedia.org/wiki/Rudyard_Kipling"},{"name":"Albrecht Dürer","birthYear":1471,"deathYear":1528,"birthLat":49.4539,"birthLng":11.0775,"deathLat":49.4539,"deathLng":11.0775,"fame":188,"image":"https://upload.wikimedia.org/wikipedia/commons/thumb/4/40/D%C3%BCrer_Alte_Pinakothek.jpg/330px-D%C3%BCrer_Alte_Pinakothek.jpg","wiki":"https://en.wikipedia.org/wiki/Albrecht_D%C3%BCrer"},{"name":"Marcel Proust","birthYear":1871,"deathYear":1922,"birthLat":48.8636,"birthLng":2.2765,"deathLat":48.8636,"deathLng":2.2765,"fame":188,"image":"https://upload.wikimedia.org/wikipedia/commons/thumb/e/ed/Otto_Wegener_Proust_vers_1895_bis.jpg/330px-Otto_Wegener_Proust_vers_1895_bis.jpg","wiki":"https://en.wikipedia.org/wiki/Marcel_Proust"},{"name":"Leonhard Euler","birthYear":1707,"deathYear":1783,"birthLat":47.5606,"birthLng":7.5906,"deathLat":59.95,"deathLng":30.3167,"fame":188,"image":"https://upload.wikimedia.org/wikipedia/commons/thumb/f/f9/Leonhard_Euler_-_Jakob_Emanuel_Handmann_%28Kunstmuseum_Basel%29.jpg/330px-Leonhard_Euler_-_Jakob_Emanuel_Handmann_%28Kunstmuseum_Basel%29.jpg","wiki":"https://en.wikipedia.org/wiki/Leonhard_Euler"},{"name":"Roald Amundsen","birthYear":1872,"deathYear":1928,"birthLat":59.2278,"birthLng":11.0433,"deathLat":90.0,"deathLng":0.0,"fame":188,"image":"https://upload.wikimedia.org/wikipedia/commons/thumb/6/6f/Amundsen_in_fur_skins.jpg/330px-Amundsen_in_fur_skins.jpg","wiki":"https://en.wikipedia.org/wiki/Roald_Amundsen"},{"name":"Dwight D. Eisenhower","birthYear":1890,"deathYear":1969,"birthLat":33.7497,"birthLng":-96.5575,"deathLat":38.975,"deathLng":-77.03,"fame":188,"image":"https://upload.wikimedia.org/wikipedia/commons/thumb/0/02/Dwight_D._Eisenhower%2C_official_photo_portrait%2C_May_29%2C_1959_%28cropped%29%283%29.jpg/330px-Dwight_D._Eisenhower%2C_official_photo_portrait%2C_May_29%2C_1959_%28cropped%29%283%29.jpg","wiki":"https://en.wikipedia.org/wiki/Dwight_D._Eisenhower"},{"name":"John Adams","birthYear":1735,"deathYear":1826,"birthLat":42.206,"birthLng":-71.005,"deathLat":42.25,"deathLng":-71.0,"fame":187,"image":"https://upload.wikimedia.org/wikipedia/commons/thumb/7/75/John_Adams_Portrait.jpg/330px-John_Adams_Portrait.jpg","wiki":"https://en.wikipedia.org/wiki/John_Adams"},{"name":"Jules Verne","birthYear":1828,"deathYear":1905,"birthLat":47.2172,"birthLng":-1.5539,"deathLat":49.8919,"deathLng":2.2978,"fame":187,"image":"https://upload.wikimedia.org/wikipedia/commons/thumb/4/4b/Jules_Verne_by_%C3%89tienne_Carjat.jpg/330px-Jules_Verne_by_%C3%89tienne_Carjat.jpg","wiki":"https://en.wikipedia.org/wiki/Jules_Verne"},{"name":"Rosa Luxemburg","birthYear":1871,"deathYear":1919,"birthLat":50.7206,"birthLng":23.2586,"deathLat":52.5167,"deathLng":13.3833,"fame":187,"image":"https://upload.wikimedia.org/wikipedia/commons/thumb/4/43/Rosa_Luxemburg_%28cropped%29.jpg/330px-Rosa_Luxemburg_%28cropped%29.jpg","wiki":"https://en.wikipedia.org/wiki/Rosa_Luxemburg"},{"name":"Hugo Chávez","birthYear":1954,"deathYear":2013,"birthLat":8.7522,"birthLng":-69.9325,"deathLat":10.4977,"deathLng":-66.9387,"fame":187,"image":"https://upload.wikimedia.org/wikipedia/commons/thumb/9/95/Hugo_Ch%C3%A1vez_official_portrait_%28cropped%29.jpg/330px-Hugo_Ch%C3%A1vez_official_portrait_%28cropped%29.jpg","wiki":"https://en.wikipedia.org/wiki/Hugo_Ch%C3%A1vez"},{"name":"George Bernard Shaw","birthYear":1856,"deathYear":1950,"birthLat":53.3497,"birthLng":-6.2603,"deathLat":51.8343,"deathLng":-0.2671,"fame":186,"image":"https://upload.wikimedia.org/wikipedia/en/thumb/3/30/Bernard-Shaw-ILN-1911-original.jpg/330px-Bernard-Shaw-ILN-1911-original.jpg","wiki":"https://en.wikipedia.org/wiki/George_Bernard_Shaw"},{"name":"Charlemagne","birthYear":742,"deathYear":814,"birthLat":47.24,"birthLng":6.02,"deathLat":50.7762,"deathLng":6.0838,"fame":186,"image":"https://upload.wikimedia.org/wikipedia/commons/thumb/f/fb/Charlemagne_denier_Mayence_812_814.jpg/330px-Charlemagne_denier_Mayence_812_814.jpg","wiki":"https://en.wikipedia.org/wiki/Charlemagne"},{"name":"Francis Bacon","birthYear":1561,"deathYear":1626,"birthLat":51.5081,"birthLng":-0.1233,"deathLat":51.5072,"deathLng":-0.1275,"fame":186,"image":"https://upload.wikimedia.org/wikipedia/commons/thumb/5/5c/Somer_Francis_Bacon.jpg/330px-Somer_Francis_Bacon.jpg","wiki":"https://en.wikipedia.org/wiki/Francis_Bacon"},{"name":"Elizabeth I of England","birthYear":1533,"deathYear":1603,"birthLat":51.4822,"birthLng":-0.0067,"deathLat":51.4604,"deathLng":-0.3102,"fame":186,"image":"https://upload.wikimedia.org/wikipedia/commons/thumb/a/af/Darnley_stage_3.jpg/330px-Darnley_stage_3.jpg","wiki":"https://en.wikipedia.org/wiki/Elizabeth_I"},{"name":"Muammar Gaddafi","birthYear":1942,"deathYear":2011,"birthLat":31.0594,"birthLng":16.6589,"deathLat":31.2,"deathLng":16.6,"fame":185,"image":"https://upload.wikimedia.org/wikipedia/commons/thumb/3/36/Muammar_al-Gaddafi_at_the_AU_summit.jpg/330px-Muammar_al-Gaddafi_at_the_AU_summit.jpg","wiki":"https://en.wikipedia.org/wiki/Muammar_Gaddafi"},{"name":"James Cook","birthYear":1728,"deathYear":1779,"birthLat":54.5406,"birthLng":-1.2124,"deathLat":19.4751,"deathLng":-155.9286,"fame":185,"image":"https://upload.wikimedia.org/wikipedia/commons/thumb/7/76/Captainjamescookportrait.jpg/330px-Captainjamescookportrait.jpg","wiki":"https://en.wikipedia.org/wiki/James_Cook"},{"name":"Bertrand Russell","birthYear":1872,"deathYear":1970,"birthLat":51.7451,"birthLng":-2.7256,"deathLat":52.9298,"deathLng":-4.0663,"fame":184,"image":"https://upload.wikimedia.org/wikipedia/commons/thumb/7/71/Bertrand_Russell_smoking_in_1936.jpg/330px-Bertrand_Russell_smoking_in_1936.jpg","wiki":"https://en.wikipedia.org/wiki/Bertrand_Russell"},{"name":"Alfred Hitchcock","birthYear":1899,"deathYear":1980,"birthLat":51.569,"birthLng":0.01,"deathLat":34.0833,"deathLng":-118.4478,"fame":184,"image":"https://upload.wikimedia.org/wikipedia/commons/thumb/9/94/Hitchcock%2C_Alfred_02.jpg/330px-Hitchcock%2C_Alfred_02.jpg","wiki":"https://en.wikipedia.org/wiki/Alfred_Hitchcock"},{"name":"Louis XIV of France","birthYear":1638,"deathYear":1715,"birthLat":48.8981,"birthLng":2.0964,"deathLat":48.8047,"deathLng":2.1203,"fame":184,"image":"https://upload.wikimedia.org/wikipedia/commons/thumb/5/5f/Louis_XIV_of_France.jpg/330px-Louis_XIV_of_France.jpg","wiki":"https://en.wikipedia.org/wiki/Louis_XIV"},{"name":"John Maynard Keynes","birthYear":1883,"deathYear":1946,"birthLat":52.2081,"birthLng":0.1225,"deathLat":50.84,"deathLng":0.12,"fame":184,"image":"https://upload.wikimedia.org/wikipedia/commons/thumb/5/5f/John_Maynard_Keynes_%281929%29.jpg/330px-John_Maynard_Keynes_%281929%29.jpg","wiki":"https://en.wikipedia.org/wiki/John_Maynard_Keynes"},{"name":"John Lennon","birthYear":1940,"deathYear":1980,"birthLat":53.4032,"birthLng":-2.9647,"deathLat":40.7128,"deathLng":-74.0061,"fame":183,"image":"https://upload.wikimedia.org/wikipedia/commons/thumb/8/85/John_Lennon_%22Walls_and_Bridges%22_1974_press_photo_2_%28color%29_%28cropped%29.jpg/330px-John_Lennon_%22Walls_and_Bridges%22_1974_press_photo_2_%28color%29_%28cropped%29.jpg","wiki":"https://en.wikipedia.org/wiki/John_Lennon"},{"name":"Arthur Conan Doyle","birthYear":1859,"deathYear":1930,"birthLat":55.9533,"birthLng":-3.1892,"deathLat":51.0448,"deathLng":0.1539,"fame":183,"image":"https://upload.wikimedia.org/wikipedia/commons/thumb/b/bd/Arthur_Conan_Doyle_by_Walter_Benington%2C_1914.png/330px-Arthur_Conan_Doyle_by_Walter_Benington%2C_1914.png","wiki":"https://en.wikipedia.org/wiki/Arthur_Conan_Doyle"},{"name":"Francisco Goya","birthYear":1746,"deathYear":1828,"birthLat":41.3413,"birthLng":-0.9595,"deathLat":44.8378,"deathLng":-0.5794,"fame":183,"image":"https://upload.wikimedia.org/wikipedia/commons/thumb/b/bf/Vicente_L%C3%B3pez_Porta%C3%B1a_-_el_pintor_Francisco_de_Goya.jpg/330px-Vicente_L%C3%B3pez_Porta%C3%B1a_-_el_pintor_Francisco_de_Goya.jpg","wiki":"https://en.wikipedia.org/wiki/Francisco_Goya"},{"name":"Simone de Beauvoir","birthYear":1908,"deathYear":1986,"birthLat":48.8505,"birthLng":2.3322,"deathLat":48.833,"deathLng":2.3269,"fame":183,"image":"https://upload.wikimedia.org/wikipedia/commons/thumb/5/55/Simone_De_Beauvoir_%28cropped%29.jpg/330px-Simone_De_Beauvoir_%28cropped%29.jpg","wiki":"https://en.wikipedia.org/wiki/Simone_de_Beauvoir"},{"name":"Johannes Kepler","birthYear":1572,"deathYear":1630,"birthLat":48.7508,"birthLng":8.8706,"deathLat":49.0167,"deathLng":12.0833,"fame":183,"image":"https://upload.wikimedia.org/wikipedia/commons/thumb/7/74/JKepler.jpg/330px-JKepler.jpg","wiki":"https://en.wikipedia.org/wiki/Johannes_Kepler"},{"name":"Maxim Gorky","birthYear":1868,"deathYear":1936,"birthLat":56.3269,"birthLng":44.0075,"deathLat":55.7056,"deathLng":37.0245,"fame":182,"image":"https://upload.wikimedia.org/wikipedia/commons/thumb/5/5e/Maxim_Gorky_LOC_Restored_edit1.jpg/330px-Maxim_Gorky_LOC_Restored_edit1.jpg","wiki":"https://en.wikipedia.org/wiki/Maxim_Gorky"},{"name":"Friedrich Schiller","birthYear":1759,"deathYear":1805,"birthLat":48.9406,"birthLng":9.2575,"deathLat":50.9811,"deathLng":11.3294,"fame":182,"image":"https://upload.wikimedia.org/wikipedia/commons/thumb/c/c6/Anton_Graff_-_Friedrich_Schiller.jpg/330px-Anton_Graff_-_Friedrich_Schiller.jpg","wiki":"https://en.wikipedia.org/wiki/Friedrich_Schiller"},{"name":"Leon Trotsky","birthYear":1879,"deathYear":1940,"birthLat":47.8928,"birthLng":32.2903,"deathLat":19.35,"deathLng":-99.1622,"fame":182,"image":"https://upload.wikimedia.org/wikipedia/commons/thumb/c/cf/Leon_Trotsky_1918_%283x4_rotated_cropped_b%29.jpg/330px-Leon_Trotsky_1918_%283x4_rotated_cropped_b%29.jpg","wiki":"https://en.wikipedia.org/wiki/Leon_Trotsky"},{"name":"Muhammad Ali","birthYear":1942,"deathYear":2016,"birthLat":38.2561,"birthLng":-85.7514,"deathLat":33.4931,"deathLng":-111.9261,"fame":182,"image":"https://upload.wikimedia.org/wikipedia/commons/thumb/8/89/Muhammad_Ali_NYWTS.jpg/330px-Muhammad_Ali_NYWTS.jpg","wiki":"https://en.wikipedia.org/wiki/Muhammad_Ali"},{"name":"Max Karl Ernst Ludwig Planck","birthYear":1858,"deathYear":1947,"birthLat":54.3233,"birthLng":10.1394,"deathLat":51.5339,"deathLng":9.9356,"fame":182,"image":"https://upload.wikimedia.org/wikipedia/commons/thumb/e/ee/Max_Planck_by_Hugo_Erfurth_1938cr_-_restoration1.jpg/330px-Max_Planck_by_Hugo_Erfurth_1938cr_-_restoration1.jpg","wiki":"https://en.wikipedia.org/wiki/Max_Planck"},{"name":"Pelé","birthYear":1940,"deathYear":2022,"birthLat":-21.6947,"birthLng":-45.2553,"deathLat":-23.6,"deathLng":-46.7152,"fame":181,"image":"https://upload.wikimedia.org/wikipedia/commons/thumb/5/5e/Pele_con_brasil_%28cropped%29.jpg/330px-Pele_con_brasil_%28cropped%29.jpg","wiki":"https://en.wikipedia.org/wiki/Pel%C3%A9"},{"name":"Vasco da Gama","birthYear":1460,"deathYear":1525,"birthLat":37.9547,"birthLng":-8.8642,"deathLat":9.9667,"deathLng":76.2833,"fame":180,"image":"https://upload.wikimedia.org/wikipedia/commons/thumb/2/2e/Ignoto_portoghese%2C_ritratto_di_un_cavaliere_dell%27ordine_di_cristo%2C_1525-50_ca._02.jpg/330px-Ignoto_portoghese%2C_ritratto_di_un_cavaliere_dell%27ordine_di_cristo%2C_1525-50_ca._02.jpg","wiki":"https://en.wikipedia.org/wiki/Vasco_da_Gama"},{"name":"Peter the Great","birthYear":1672,"deathYear":1725,"birthLat":55.7506,"birthLng":37.6175,"deathLat":59.95,"deathLng":30.3167,"fame":180,"image":"https://upload.wikimedia.org/wikipedia/commons/thumb/d/d6/Inconnu_d%27apr%C3%A8s_J.-M._Nattier%2C_Portrait_de_Pierre_Ier_%28mus%C3%A9e_de_l%E2%80%99Ermitage%29.jpg/330px-Inconnu_d%27apr%C3%A8s_J.-M._Nattier%2C_Portrait_de_Pierre_Ier_%28mus%C3%A9e_de_l%E2%80%99Ermitage%29.jpg","wiki":"https://en.wikipedia.org/wiki/Peter_the_Great"},{"name":"Johannes Gutenberg","birthYear":1400,"deathYear":1468,"birthLat":49.9994,"birthLng":8.2736,"deathLat":49.9994,"deathLng":8.2736,"fame":179,"image":"https://upload.wikimedia.org/wikipedia/commons/thumb/5/5b/Mainz_Gutenbergdenkmal_2016_%28cropped%29.jpg/330px-Mainz_Gutenbergdenkmal_2016_%28cropped%29.jpg","wiki":"https://en.wikipedia.org/wiki/Johannes_Gutenberg"},{"name":"Dmitri Mendeleev","birthYear":1834,"deathYear":1907,"birthLat":58.1953,"birthLng":68.2581,"deathLat":59.95,"deathLng":30.3167,"fame":179,"image":"https://upload.wikimedia.org/wikipedia/commons/thumb/a/af/Dmitri_Mendeleev.jpg/330px-Dmitri_Mendeleev.jpg","wiki":"https://en.wikipedia.org/wiki/Dmitri_Mendeleev"},{"name":"Henri Matisse","birthYear":1869,"deathYear":1954,"birthLat":50.1053,"birthLng":3.5411,"deathLat":43.7019,"deathLng":7.2683,"fame":178,"image":"https://upload.wikimedia.org/wikipedia/commons/thumb/7/76/Henri_Matisse%2C_1913%2C_photograph_by_Alvin_Langdon_Coburn.jpg/330px-Henri_Matisse%2C_1913%2C_photograph_by_Alvin_Langdon_Coburn.jpg","wiki":"https://en.wikipedia.org/wiki/Henri_Matisse"},{"name":"Andy Warhol","birthYear":1928,"deathYear":1987,"birthLat":40.4417,"birthLng":-80.0,"deathLat":40.7128,"deathLng":-74.0061,"fame":178,"image":"https://upload.wikimedia.org/wikipedia/commons/thumb/5/5b/Andy_Warhol_at_the_Jewish_Museum_%28by_Bernard_Gotfryd%29_%E2%80%93_LOC.jpg/330px-Andy_Warhol_at_the_Jewish_Museum_%28by_Bernard_Gotfryd%29_%E2%80%93_LOC.jpg","wiki":"https://en.wikipedia.org/wiki/Andy_Warhol"},{"name":"Freddie Mercury","birthYear":1946,"deathYear":1991,"birthLat":-6.1667,"birthLng":39.2,"deathLat":51.5004,"deathLng":-0.1909,"fame":177,"image":"https://upload.wikimedia.org/wikipedia/commons/thumb/e/ef/Freddie_Mercury_performing_in_New_Haven%2C_CT%2C_November_1977.jpg/330px-Freddie_Mercury_performing_in_New_Haven%2C_CT%2C_November_1977.jpg","wiki":"https://en.wikipedia.org/wiki/Freddie_Mercury"},{"name":"Charles Baudelaire","birthYear":1821,"deathYear":1867,"birthLat":48.8506,"birthLng":2.3326,"deathLat":48.8567,"deathLng":2.3522,"fame":177,"image":"https://upload.wikimedia.org/wikipedia/commons/thumb/1/16/%C3%89tienne_Carjat%2C_Portrait_of_Charles_Baudelaire%2C_circa_1862.jpg/330px-%C3%89tienne_Carjat%2C_Portrait_of_Charles_Baudelaire%2C_circa_1862.jpg","wiki":"https://en.wikipedia.org/wiki/Charles_Baudelaire"},{"name":"Frank Lloyd Wright","birthYear":1867,"deathYear":1959,"birthLat":43.3378,"birthLng":-90.3847,"deathLat":33.4483,"deathLng":-112.0739,"fame":177,"image":"https://upload.wikimedia.org/wikipedia/commons/thumb/3/30/Frank_Lloyd_Wright_portrait.jpg/330px-Frank_Lloyd_Wright_portrait.jpg","wiki":"https://en.wikipedia.org/wiki/Frank_Lloyd_Wright"},{"name":"Geoffrey Chaucer","birthYear":1343,"deathYear":1400,"birthLat":51.5072,"birthLng":-0.1275,"deathLat":51.5072,"deathLng":-0.1275,"fame":177,"image":"https://upload.wikimedia.org/wikipedia/commons/thumb/5/57/Chaucer_manuscrit_portrait_%28d%C3%A9tail%29.jpeg/330px-Chaucer_manuscrit_portrait_%28d%C3%A9tail%29.jpeg","wiki":"https://en.wikipedia.org/wiki/Geoffrey_Chaucer"},{"name":"Michael Faraday","birthYear":1791,"deathYear":1867,"birthLat":51.4928,"birthLng":-0.1011,"deathLat":52.1677,"deathLng":-2.7041,"fame":177,"image":"https://upload.wikimedia.org/wikipedia/commons/thumb/7/7e/Michael_Faraday_sitting_crop.jpg/330px-Michael_Faraday_sitting_crop.jpg","wiki":"https://en.wikipedia.org/wiki/Michael_Faraday"},{"name":"Kofi Annan","birthYear":1938,"deathYear":2018,"birthLat":6.7,"birthLng":-1.625,"deathLat":46.948,"deathLng":7.4474,"fame":176,"image":"https://upload.wikimedia.org/wikipedia/commons/thumb/7/72/Kofi_Annan_2012_%28cropped%29.jpg/330px-Kofi_Annan_2012_%28cropped%29.jpg","wiki":"https://en.wikipedia.org/wiki/Kofi_Annan"},{"name":"Marcus Aurelius","birthYear":121,"deathYear":180,"birthLat":41.8931,"birthLng":12.4828,"deathLat":48.2108,"deathLng":16.3703,"fame":176,"image":"https://upload.wikimedia.org/wikipedia/commons/thumb/e/ec/MSR-ra-61-b-1-DM.jpg/330px-MSR-ra-61-b-1-DM.jpg","wiki":"https://en.wikipedia.org/wiki/Marcus_Aurelius"},{"name":"Benedictus de Spinoza","birthYear":1632,"deathYear":1677,"birthLat":52.3667,"birthLng":4.8833,"deathLat":52.08,"deathLng":4.31,"fame":176,"image":"https://upload.wikimedia.org/wikipedia/commons/thumb/e/ea/Spinoza.jpg/330px-Spinoza.jpg","wiki":"https://en.wikipedia.org/wiki/Baruch_Spinoza"},{"name":"Giuseppe Verdi","birthYear":1813,"deathYear":1901,"birthLat":44.9522,"birthLng":10.0721,"deathLat":45.4669,"deathLng":9.19,"fame":176,"image":"https://upload.wikimedia.org/wikipedia/commons/thumb/9/9a/Giuseppe_Verdi_by_Ferdinand_Mulnier_BW.jpg/330px-Giuseppe_Verdi_by_Ferdinand_Mulnier_BW.jpg","wiki":"https://en.wikipedia.org/wiki/Giuseppe_Verdi"},{"name":"Ashoka","birthYear":-303,"deathYear":-231,"birthLat":25.61,"birthLng":85.1414,"deathLat":25.61,"deathLng":85.1414,"fame":176,"image":"https://upload.wikimedia.org/wikipedia/commons/thumb/2/28/Ashoka%27s_visit_to_the_Ramagrama_stupa_Sanchi_Stupa_1_Southern_gateway.jpg/330px-Ashoka%27s_visit_to_the_Ramagrama_stupa_Sanchi_Stupa_1_Southern_gateway.jpg","wiki":"https://en.wikipedia.org/wiki/Ashoka"},{"name":"Louis Armstrong","birthYear":1901,"deathYear":1971,"birthLat":29.9761,"birthLng":-90.0783,"deathLat":40.735,"deathLng":-73.865,"fame":175,"image":"https://upload.wikimedia.org/wikipedia/commons/thumb/1/16/Louis_Armstrong_in_Color_%28restored%29.jpg/330px-Louis_Armstrong_in_Color_%28restored%29.jpg","wiki":"https://en.wikipedia.org/wiki/Louis_Armstrong"},{"name":"Katsushika Hokusai","birthYear":1760,"deathYear":1849,"birthLat":35.7038,"birthLng":139.8023,"deathLat":35.7149,"deathLng":139.7965,"fame":175,"image":"https://upload.wikimedia.org/wikipedia/commons/thumb/1/1c/Hokusai_as_an_old_man.jpg/330px-Hokusai_as_an_old_man.jpg","wiki":"https://en.wikipedia.org/wiki/Hokusai"},{"name":"Lyndon B. Johnson","birthYear":1908,"deathYear":1973,"birthLat":30.24,"birthLng":-98.66,"deathLat":30.24,"deathLng":-98.66,"fame":175,"image":"https://upload.wikimedia.org/wikipedia/commons/thumb/5/54/Lyndon_B._Johnson%2C_photo_portrait%2C_color_%283x4_cropped%29%282%29.jpg/330px-Lyndon_B._Johnson%2C_photo_portrait%2C_color_%283x4_cropped%29%282%29.jpg","wiki":"https://en.wikipedia.org/wiki/Lyndon_B._Johnson"},{"name":"Osama bin Laden","birthYear":1957,"deathYear":2011,"birthLat":24.65,"birthLng":46.71,"deathLat":34.1693,"deathLng":73.2424,"fame":174,"image":"https://upload.wikimedia.org/wikipedia/commons/thumb/c/ca/Osama_bin_Laden_portrait.jpg/330px-Osama_bin_Laden_portrait.jpg","wiki":"https://en.wikipedia.org/wiki/Osama_bin_Laden"},{"name":"Diego Maradona","birthYear":1960,"deathYear":2020,"birthLat":-34.7,"birthLng":-58.4,"deathLat":-34.3539,"deathLng":-58.7081,"fame":174,"image":"https://upload.wikimedia.org/wikipedia/commons/thumb/4/48/Argentina_celebrando_copa_%28cropped%29.jpg/330px-Argentina_celebrando_copa_%28cropped%29.jpg","wiki":"https://en.wikipedia.org/wiki/Diego_Maradona"},{"name":"Alexandre Dumas","birthYear":1802,"deathYear":1870,"birthLat":49.2531,"birthLng":3.0903,"deathLat":49.9373,"deathLng":1.1182,"fame":174,"image":"https://upload.wikimedia.org/wikipedia/commons/thumb/8/87/Alexandre_Dumas_-_photographie_Pierre_Petit_%28cropped%29.jpg/330px-Alexandre_Dumas_-_photographie_Pierre_Petit_%28cropped%29.jpg","wiki":"https://en.wikipedia.org/wiki/Alexandre_Dumas"},{"name":"Virginia Woolf","birthYear":1882,"deathYear":1941,"birthLat":51.5072,"birthLng":-0.1275,"deathLat":50.8747,"deathLng":0.0117,"fame":174,"image":"https://upload.wikimedia.org/wikipedia/commons/thumb/0/0b/George_Charles_Beresford_-_Virginia_Woolf_in_1902_-_Restoration.jpg/330px-George_Charles_Beresford_-_Virginia_Woolf_in_1902_-_Restoration.jpg","wiki":"https://en.wikipedia.org/wiki/Virginia_Woolf"},{"name":"Akira Kurosawa","birthYear":1910,"deathYear":1998,"birthLat":35.6019,"birthLng":139.7366,"deathLat":35.6403,"deathLng":139.5985,"fame":174,"image":"https://upload.wikimedia.org/wikipedia/commons/thumb/4/48/Akirakurosawa-onthesetof7samurai-1953-page88.jpg/330px-Akirakurosawa-onthesetof7samurai-1953-page88.jpg","wiki":"https://en.wikipedia.org/wiki/Akira_Kurosawa"},{"name":"Simón Bolívar","birthYear":1783,"deathYear":1830,"birthLat":10.5061,"birthLng":-66.9144,"deathLat":11.2281,"deathLng":-74.1792,"fame":174,"image":"https://upload.wikimedia.org/wikipedia/commons/thumb/8/87/Sim%C3%B3n_Bol%C3%ADvar._Toro_Moreno%2C_Luis._1922%2C_Legislative_Palace%2C_La_Paz.png/330px-Sim%C3%B3n_Bol%C3%ADvar._Toro_Moreno%2C_Luis._1922%2C_Legislative_Palace%2C_La_Paz.png","wiki":"https://en.wikipedia.org/wiki/Sim%C3%B3n_Bol%C3%ADvar"},{"name":"Gerald Ford","birthYear":1913,"deathYear":2006,"birthLat":41.2586,"birthLng":-95.9375,"deathLat":33.7692,"deathLng":-116.4211,"fame":174,"image":"https://upload.wikimedia.org/wikipedia/commons/thumb/3/36/Gerald_Ford_presidential_portrait_%28cropped%29.jpg/330px-Gerald_Ford_presidential_portrait_%28cropped%29.jpg","wiki":"https://en.wikipedia.org/wiki/Gerald_Ford"},{"name":"James Madison","birthYear":1751,"deathYear":1836,"birthLat":38.1772,"birthLng":-77.1861,"deathLat":38.2197,"deathLng":-78.1694,"fame":173,"image":"https://upload.wikimedia.org/wikipedia/commons/thumb/1/1d/James_Madison.jpg/330px-James_Madison.jpg","wiki":"https://en.wikipedia.org/wiki/James_Madison"},{"name":"Arthur Schopenhauer","birthYear":1788,"deathYear":1860,"birthLat":54.3483,"birthLng":18.654,"deathLat":50.1106,"deathLng":8.6822,"fame":173,"image":"https://upload.wikimedia.org/wikipedia/commons/thumb/b/bc/Arthur_Schopenhauer_by_J_Sch%C3%A4fer%2C_1859b.jpg/330px-Arthur_Schopenhauer_by_J_Sch%C3%A4fer%2C_1859b.jpg","wiki":"https://en.wikipedia.org/wiki/Arthur_Schopenhauer"},{"name":"Hippocrates","birthYear":-459,"deathYear":-369,"birthLat":36.8959,"birthLng":27.2905,"deathLat":39.6417,"deathLng":22.4167,"fame":173,"image":"https://upload.wikimedia.org/wikipedia/commons/thumb/7/7c/Hippocrates.jpg/330px-Hippocrates.jpg","wiki":"https://en.wikipedia.org/wiki/Hippocrates"},{"name":"Victoria","birthYear":1819,"deathYear":1901,"birthLat":51.5053,"birthLng":-0.1883,"deathLat":50.7505,"deathLng":-1.27,"fame":173,"image":"https://upload.wikimedia.org/wikipedia/commons/thumb/e/e3/Queen_Victoria_by_Bassano.jpg/330px-Queen_Victoria_by_Bassano.jpg","wiki":"https://en.wikipedia.org/wiki/Queen_Victoria"},{"name":"Honoré de Balzac","birthYear":1799,"deathYear":1850,"birthLat":47.3928,"birthLng":0.6883,"deathLat":48.8567,"deathLng":2.3522,"fame":173,"image":"https://upload.wikimedia.org/wikipedia/commons/thumb/e/e8/%E5%A5%A5%C2%B7%E5%B7%B4%E5%B0%94%E6%89%8E%E5%85%8B.png/330px-%E5%A5%A5%C2%B7%E5%B7%B4%E5%B0%94%E6%89%8E%E5%85%8B.png","wiki":"https://en.wikipedia.org/wiki/Honor%C3%A9_de_Balzac"},{"name":"Huang Xianfan","birthYear":1899,"deathYear":1982,"birthLat":22.635,"birthLng":107.9039,"deathLat":25.2819,"deathLng":110.2864,"fame":172,"image":"https://upload.wikimedia.org/wikipedia/commons/5/51/Huang_Xianfan_Graduation_Photo.jpg","wiki":"https://en.wikipedia.org/wiki/Huang_Xianfan"},{"name":"Indira Gandhi","birthYear":1917,"deathYear":1984,"birthLat":25.45,"birthLng":81.85,"deathLat":28.6139,"deathLng":77.2089,"fame":171,"image":"https://upload.wikimedia.org/wikipedia/commons/thumb/a/a1/Indira_Gandhi_official_portrait.png/330px-Indira_Gandhi_official_portrait.png","wiki":"https://en.wikipedia.org/wiki/Indira_Gandhi"},{"name":"Peter Paul Rubens","birthYear":1577,"deathYear":1640,"birthLat":50.8756,"birthLng":8.0167,"deathLat":51.2211,"deathLng":4.3997,"fame":171,"image":"https://upload.wikimedia.org/wikipedia/commons/thumb/2/24/Peter_Paul_Rubens_-_Self-portrait_-_RH.S.180_-_Rubenshuis_%28after_restoration%29.jpg/330px-Peter_Paul_Rubens_-_Self-portrait_-_RH.S.180_-_Rubenshuis_%28after_restoration%29.jpg","wiki":"https://en.wikipedia.org/wiki/Peter_Paul_Rubens"},{"name":"Naguib Mahfouz","birthYear":1911,"deathYear":2006,"birthLat":30.0511,"birthLng":31.2649,"deathLat":30.0522,"deathLng":31.2156,"fame":171,"image":"https://upload.wikimedia.org/wikipedia/commons/6/66/Nagib_Mahfouz.jpg","wiki":"https://en.wikipedia.org/wiki/Naguib_Mahfouz"},{"name":"Ernest Rutherford","birthYear":1871,"deathYear":1937,"birthLat":-41.388,"birthLng":173.079,"deathLat":52.2081,"deathLng":0.1225,"fame":171,"image":"https://upload.wikimedia.org/wikipedia/commons/thumb/f/f8/Sir_Ernest_Rutherford_LCCN2014716719_-_restoration1.jpg/330px-Sir_Ernest_Rutherford_LCCN2014716719_-_restoration1.jpg","wiki":"https://en.wikipedia.org/wiki/Ernest_Rutherford"},{"name":"Max Weber","birthYear":1864,"deathYear":1920,"birthLat":50.9781,"birthLng":11.0289,"deathLat":48.1375,"deathLng":11.575,"fame":171,"image":"https://upload.wikimedia.org/wikipedia/commons/thumb/6/65/Max_Weber%2C_1918.jpg/330px-Max_Weber%2C_1918.jpg","wiki":"https://en.wikipedia.org/wiki/Max_Weber"},{"name":"Ludwig Wittgenstein","birthYear":1889,"deathYear":1951,"birthLat":48.2378,"birthLng":16.2861,"deathLat":52.2081,"deathLng":0.1225,"fame":171,"image":"https://upload.wikimedia.org/wikipedia/commons/thumb/4/45/Ludwig_Wittgenstein_1929.jpg/330px-Ludwig_Wittgenstein_1929.jpg","wiki":"https://en.wikipedia.org/wiki/Ludwig_Wittgenstein"},{"name":"Cleopatra","birthYear":-68,"deathYear":-29,"birthLat":31.1975,"birthLng":29.8925,"deathLat":31.1975,"deathLng":29.8925,"fame":170,"image":"https://upload.wikimedia.org/wikipedia/commons/thumb/3/3e/Kleopatra-VII.-Altes-Museum-Berlin1.jpg/330px-Kleopatra-VII.-Altes-Museum-Berlin1.jpg","wiki":"https://en.wikipedia.org/wiki/Cleopatra"},{"name":"Franz Schubert","birthYear":1797,"deathYear":1828,"birthLat":48.2269,"birthLng":16.3517,"deathLat":48.2083,"deathLng":16.3725,"fame":170,"image":"https://upload.wikimedia.org/wikipedia/commons/thumb/0/0d/Franz_Schubert_by_Wilhelm_August_Rieder_1875.jpg/330px-Franz_Schubert_by_Wilhelm_August_Rieder_1875.jpg","wiki":"https://en.wikipedia.org/wiki/Franz_Schubert"},{"name":"Hernán Cortés","birthYear":1485,"deathYear":1547,"birthLat":38.963,"birthLng":-5.9581,"deathLat":37.3864,"deathLng":-6.0517,"fame":170,"image":"https://upload.wikimedia.org/wikipedia/commons/thumb/0/06/Retrato_de_Hern%C3%A1n_Cort%C3%A9s.jpg/330px-Retrato_de_Hern%C3%A1n_Cort%C3%A9s.jpg","wiki":"https://en.wikipedia.org/wiki/Hern%C3%A1n_Cort%C3%A9s"},{"name":"Saddam Hussein","birthYear":1937,"deathYear":2006,"birthLat":34.6,"birthLng":43.6833,"deathLat":33.382,"deathLng":44.353,"fame":169,"image":"https://upload.wikimedia.org/wikipedia/commons/thumb/9/9a/Saddam_Hussein_in_1998.png/330px-Saddam_Hussein_in_1998.png","wiki":"https://en.wikipedia.org/wiki/Saddam_Hussein"},{"name":"Antoine de Saint-Exupéry","birthYear":1900,"deathYear":1944,"birthLat":45.7541,"birthLng":4.8291,"deathLat":43.1761,"deathLng":5.3861,"fame":169,"image":"https://upload.wikimedia.org/wikipedia/commons/4/4a/11exupery-inline1-500_%28cropped%29.jpg","wiki":"https://en.wikipedia.org/wiki/Antoine_de_Saint-Exup%C3%A9ry"},{"name":"Nikita Khrushchev","birthYear":1894,"deathYear":1971,"birthLat":51.9,"birthLng":34.5,"deathLat":55.7506,"deathLng":37.6175,"fame":169,"image":"https://upload.wikimedia.org/wikipedia/commons/thumb/4/4d/1956_Press_Photo_Communist_Party_Secretary_Nikita_S._Khrushchev_in_Moscow_%28cropped%29.jpg/330px-1956_Press_Photo_Communist_Party_Secretary_Nikita_S._Khrushchev_in_Moscow_%28cropped%29.jpg","wiki":"https://en.wikipedia.org/wiki/Nikita_Khrushchev"},{"name":"Søren Kierkegaard","birthYear":1813,"deathYear":1855,"birthLat":55.6761,"birthLng":12.5689,"deathLat":55.6761,"deathLng":12.5689,"fame":169,"image":"https://upload.wikimedia.org/wikipedia/commons/thumb/d/d4/S%C3%B8ren_Kierkegaard_%281813-1855%29_-_%28cropped%29.jpg/330px-S%C3%B8ren_Kierkegaard_%281813-1855%29_-_%28cropped%29.jpg","wiki":"https://en.wikipedia.org/wiki/S%C3%B8ren_Kierkegaard"},{"name":"Enrico Fermi","birthYear":1901,"deathYear":1954,"birthLat":41.8931,"birthLng":12.4828,"deathLat":41.8819,"deathLng":-87.6278,"fame":169,"image":"https://upload.wikimedia.org/wikipedia/commons/thumb/d/d4/Enrico_Fermi_1943-49.jpg/330px-Enrico_Fermi_1943-49.jpg","wiki":"https://en.wikipedia.org/wiki/Enrico_Fermi"},{"name":"Rafael Orozco Maestre","birthYear":1954,"deathYear":1992,"birthLat":9.7031,"birthLng":-73.2775,"deathLat":10.9833,"deathLng":-74.8019,"fame":168,"image":"https://upload.wikimedia.org/wikipedia/commons/thumb/b/b7/Rafael_Orozco_1992.jpg/330px-Rafael_Orozco_1992.jpg","wiki":"https://en.wikipedia.org/wiki/Rafael_Orozco_Maestre"},{"name":"H. G. Wells","birthYear":1866,"deathYear":1946,"birthLat":51.4064,"birthLng":0.0183,"deathLat":51.5072,"deathLng":-0.1275,"fame":168,"image":"https://upload.wikimedia.org/wikipedia/commons/thumb/4/4b/H.G._Wells_by_Beresford.jpg/330px-H.G._Wells_by_Beresford.jpg","wiki":"https://en.wikipedia.org/wiki/H._G._Wells"},{"name":"Heinrich Heine","birthYear":1797,"deathYear":1856,"birthLat":51.2256,"birthLng":6.7767,"deathLat":48.8567,"deathLng":2.3522,"fame":168,"image":"https://upload.wikimedia.org/wikipedia/commons/thumb/5/5e/Heinrich_Heine-Oppenheim.jpg/330px-Heinrich_Heine-Oppenheim.jpg","wiki":"https://en.wikipedia.org/wiki/Heinrich_Heine"},{"name":"Anne Frank","birthYear":1929,"deathYear":1945,"birthLat":50.1194,"birthLng":8.6881,"deathLat":52.7589,"deathLng":9.9071,"fame":167,"image":"https://upload.wikimedia.org/wikipedia/commons/thumb/6/6b/Anne_Frank_passport_photo%2C_May_1942_%28cropped%29.jpg/330px-Anne_Frank_passport_photo%2C_May_1942_%28cropped%29.jpg","wiki":"https://en.wikipedia.org/wiki/Anne_Frank"},{"name":"Pablo Neruda","birthYear":1904,"deathYear":1973,"birthLat":-36.15,"birthLng":-71.8333,"deathLat":-33.4375,"deathLng":-70.65,"fame":166,"image":"https://upload.wikimedia.org/wikipedia/commons/thumb/8/86/Pablo_Neruda_1963.jpg/330px-Pablo_Neruda_1963.jpg","wiki":"https://en.wikipedia.org/wiki/Pablo_Neruda"},{"name":"Aesop","birthYear":-619,"deathYear":-563,"birthLat":37.6894,"birthLng":26.9431,"deathLat":38.4833,"deathLng":22.5,"fame":166,"image":"https://upload.wikimedia.org/wikipedia/commons/thumb/6/63/Aesop_pushkin01.jpg/330px-Aesop_pushkin01.jpg","wiki":"https://en.wikipedia.org/wiki/Aesop"},{"name":"Émile Zola","birthYear":1840,"deathYear":1902,"birthLat":48.8685,"birthLng":2.3444,"deathLat":48.8783,"deathLng":2.337,"fame":166,"image":"https://upload.wikimedia.org/wikipedia/commons/thumb/9/97/Nadar_%28atelier_de%29_-_Emile_Zola%2C_13-556535.jpg/330px-Nadar_%28atelier_de%29_-_Emile_Zola%2C_13-556535.jpg","wiki":"https://en.wikipedia.org/wiki/%C3%89mile_Zola"},{"name":"Horace","birthYear":-64,"deathYear":-7,"birthLat":40.9667,"birthLng":15.8167,"deathLat":41.8931,"deathLng":12.4828,"fame":166,"image":"https://upload.wikimedia.org/wikipedia/commons/thumb/7/77/%28contorniate_M%C3%A9daillon_Horace_Rome_%28...%29Horace_%280065-0008_btv1b11343890r_1_%28cropped%29.jpg/330px-%28contorniate_M%C3%A9daillon_Horace_Rome_%28...%29Horace_%280065-0008_btv1b11343890r_1_%28cropped%29.jpg","wiki":"https://en.wikipedia.org/wiki/Horace"},{"name":"Akbar","birthYear":1542,"deathYear":1605,"birthLat":25.3636,"birthLng":69.7339,"deathLat":27.0911,"deathLng":77.6611,"fame":166,"image":"https://upload.wikimedia.org/wikipedia/commons/thumb/3/34/Govardhan._Akbar_With_Lion_and_Calf_ca._1630%2C_Metmuseum_%28cropped%29.jpg/330px-Govardhan._Akbar_With_Lion_and_Calf_ca._1630%2C_Metmuseum_%28cropped%29.jpg","wiki":"https://en.wikipedia.org/wiki/Akbar"},{"name":"John Quincy Adams","birthYear":1767,"deathYear":1848,"birthLat":42.206,"birthLng":-71.005,"deathLat":38.8897,"deathLng":-77.0092,"fame":165,"image":"https://upload.wikimedia.org/wikipedia/commons/thumb/3/3a/JQA_Photo_Crop_%28cropped%29.jpg/330px-JQA_Photo_Crop_%28cropped%29.jpg","wiki":"https://en.wikipedia.org/wiki/John_Quincy_Adams"},{"name":"Antonio Vivaldi","birthYear":1678,"deathYear":1741,"birthLat":45.4397,"birthLng":12.3319,"deathLat":48.2083,"deathLng":16.3725,"fame":165,"image":"https://upload.wikimedia.org/wikipedia/commons/thumb/b/bd/Vivaldi.jpg/330px-Vivaldi.jpg","wiki":"https://en.wikipedia.org/wiki/Antonio_Vivaldi"},{"name":"Diego Velázquez","birthYear":1599,"deathYear":1660,"birthLat":37.3886,"birthLng":-5.9956,"deathLat":40.4169,"deathLng":-3.7033,"fame":165,"image":"https://upload.wikimedia.org/wikipedia/commons/thumb/6/6c/Diego_Vel%C3%A1zquez_Autorretrato_45_x_38_cm_-_Colecci%C3%B3n_Real_Academia_de_Bellas_Artes_de_San_Carlos_-_Museo_de_Bellas_Artes_de_Valencia.jpg/330px-Diego_Vel%C3%A1zquez_Autorretrato_45_x_38_cm_-_Colecci%C3%B3n_Real_Academia_de_Bellas_Artes_de_San_Carlos_-_Museo_de_Bellas_Artes_de_Valencia.jpg","wiki":"https://en.wikipedia.org/wiki/Diego_Vel%C3%A1zquez"},{"name":"Omar Khayyám","birthYear":1048,"deathYear":1131,"birthLat":36.2133,"birthLng":58.7958,"deathLat":36.2133,"deathLng":58.7958,"fame":165,"image":"https://upload.wikimedia.org/wikipedia/commons/thumb/b/b3/Hakim_Omar_Khayam_-_panoramio.jpg/330px-Hakim_Omar_Khayam_-_panoramio.jpg","wiki":"https://en.wikipedia.org/wiki/Omar_Khayyam"},{"name":"Silvio Berlusconi","birthYear":1936,"deathYear":2023,"birthLat":45.4669,"birthLng":9.19,"deathLat":45.4669,"deathLng":9.19,"fame":164,"image":"https://upload.wikimedia.org/wikipedia/commons/thumb/0/01/Silvio_Berlusconi_%282010%29_cropped.jpg/330px-Silvio_Berlusconi_%282010%29_cropped.jpg","wiki":"https://en.wikipedia.org/wiki/Silvio_Berlusconi"},{"name":"Helen Keller","birthYear":1880,"deathYear":1968,"birthLat":34.7394,"birthLng":-87.7067,"deathLat":41.6,"deathLng":-72.7,"fame":164,"image":"https://upload.wikimedia.org/wikipedia/commons/thumb/7/7b/Helen_Keller_%28circa_1904%29.jpg/330px-Helen_Keller_%28circa_1904%29.jpg","wiki":"https://en.wikipedia.org/wiki/Helen_Keller"},{"name":"Bob Marley","birthYear":1945,"deathYear":1981,"birthLat":18.2978,"birthLng":-77.2781,"deathLat":25.7915,"deathLng":-80.2126,"fame":164,"image":"https://upload.wikimedia.org/wikipedia/commons/thumb/2/2d/Bob_Marley_1976_press_photo.jpg/330px-Bob_Marley_1976_press_photo.jpg","wiki":"https://en.wikipedia.org/wiki/Bob_Marley"},{"name":"Ibn Battuta","birthYear":1304,"deathYear":1368,"birthLat":35.7767,"birthLng":-5.8039,"deathLat":34.0433,"deathLng":-5.0033,"fame":164,"image":"https://upload.wikimedia.org/wikipedia/commons/thumb/9/9c/Handmade_oil_painting_reproduction_of_Ibn_Battuta_in_Egypt%2C_a_painting_by_Hippolyte_Leon_Benett..jpg/330px-Handmade_oil_painting_reproduction_of_Ibn_Battuta_in_Egypt%2C_a_painting_by_Hippolyte_Leon_Benett..jpg","wiki":"https://en.wikipedia.org/wiki/Ibn_Battuta"},{"name":"Ibn Khaldun","birthYear":1332,"deathYear":1406,"birthLat":36.8008,"birthLng":10.18,"deathLat":30.0444,"deathLng":31.2358,"fame":164,"image":"https://upload.wikimedia.org/wikipedia/commons/thumb/a/aa/Bust_of_Ibn_Khaldun_%28Casbah_of_Bejaia%2C_Algeria%29.jpg/330px-Bust_of_Ibn_Khaldun_%28Casbah_of_Bejaia%2C_Algeria%29.jpg","wiki":"https://en.wikipedia.org/wiki/Ibn_Khaldun"},{"name":"Shinzō Abe","birthYear":1954,"deathYear":2022,"birthLat":35.6939,"birthLng":139.7034,"deathLat":34.5047,"deathLng":135.7921,"fame":163,"image":"https://upload.wikimedia.org/wikipedia/commons/thumb/0/0e/Shinz%C5%8D_Abe_20120501.jpg/330px-Shinz%C5%8D_Abe_20120501.jpg","wiki":"https://en.wikipedia.org/wiki/Shinzo_Abe"},{"name":"Andrew Jackson","birthYear":1767,"deathYear":1845,"birthLat":34.9259,"birthLng":-80.7459,"deathLat":36.215,"deathLng":-86.6131,"fame":163,"image":"https://upload.wikimedia.org/wikipedia/commons/thumb/2/2a/Andrew_jackson_head_%28cropped%29.jpg/330px-Andrew_jackson_head_%28cropped%29.jpg","wiki":"https://en.wikipedia.org/wiki/Andrew_Jackson"},{"name":"David Hilbert","birthYear":1862,"deathYear":1943,"birthLat":54.7167,"birthLng":20.5,"deathLat":51.5339,"deathLng":9.9356,"fame":163,"image":"https://upload.wikimedia.org/wikipedia/commons/thumb/7/79/Hilbert.jpg/330px-Hilbert.jpg","wiki":"https://en.wikipedia.org/wiki/David_Hilbert"},{"name":"Hafez","birthYear":1325,"deathYear":1389,"birthLat":29.61,"birthLng":52.5425,"deathLat":29.61,"deathLng":52.5425,"fame":163,"image":"https://upload.wikimedia.org/wikipedia/commons/thumb/d/de/Anselm_Feuerbach_Hafis_vor_der_Schenke_%28cropped%29.jpg/330px-Anselm_Feuerbach_Hafis_vor_der_Schenke_%28cropped%29.jpg","wiki":"https://en.wikipedia.org/wiki/Hafez"},{"name":"Igor Stravinsky","birthYear":1882,"deathYear":1971,"birthLat":59.9167,"birthLng":29.7667,"deathLat":40.7128,"deathLng":-74.0061,"fame":163,"image":"https://upload.wikimedia.org/wikipedia/commons/thumb/3/33/Igor_Stravinsky_LOC_32392u.jpg/330px-Igor_Stravinsky_LOC_32392u.jpg","wiki":"https://en.wikipedia.org/wiki/Igor_Stravinsky"},{"name":"Isaac Asimov","birthYear":1920,"deathYear":1992,"birthLat":53.9764,"birthLng":32.1628,"deathLat":40.7283,"deathLng":-73.9942,"fame":162,"image":"https://upload.wikimedia.org/wikipedia/commons/thumb/3/34/Isaac.Asimov01.jpg/330px-Isaac.Asimov01.jpg","wiki":"https://en.wikipedia.org/wiki/Isaac_Asimov"},{"name":"Thomas Mann","birthYear":1875,"deathYear":1955,"birthLat":53.8697,"birthLng":10.6864,"deathLat":47.3744,"deathLng":8.5411,"fame":162,"image":"https://upload.wikimedia.org/wikipedia/commons/thumb/9/95/Thomas_Mann_1929.jpg/330px-Thomas_Mann_1929.jpg","wiki":"https://en.wikipedia.org/wiki/Thomas_Mann"},{"name":"Jonathan Swift","birthYear":1667,"deathYear":1745,"birthLat":53.3497,"birthLng":-6.2603,"deathLat":53.3497,"deathLng":-6.2603,"fame":162,"image":"https://upload.wikimedia.org/wikipedia/commons/thumb/6/67/Charles_Jervas_%28c.1675-1739%29_-_Jonathan_Swift_-_NPG_278_-_National_Portrait_Gallery.jpg/330px-Charles_Jervas_%28c.1675-1739%29_-_Jonathan_Swift_-_NPG_278_-_National_Portrait_Gallery.jpg","wiki":"https://en.wikipedia.org/wiki/Jonathan_Swift"},{"name":"William Blake","birthYear":1757,"deathYear":1827,"birthLat":51.5072,"birthLng":-0.1275,"deathLat":51.5072,"deathLng":-0.1275,"fame":162,"image":"https://upload.wikimedia.org/wikipedia/commons/thumb/0/00/William_Blake_by_Thomas_Phillips.jpg/330px-William_Blake_by_Thomas_Phillips.jpg","wiki":"https://en.wikipedia.org/wiki/William_Blake"},{"name":"Abu Nuwas","birthYear":756,"deathYear":814,"birthLat":31.3189,"birthLng":48.6842,"deathLat":33.3153,"deathLng":44.3661,"fame":162,"image":"https://upload.wikimedia.org/wikipedia/commons/thumb/a/ad/Abu_Nuwas.jpg/330px-Abu_Nuwas.jpg","wiki":"https://en.wikipedia.org/wiki/Abu_Nuwas"},{"name":"Erwin Schrödinger","birthYear":1887,"deathYear":1961,"birthLat":48.2083,"birthLng":16.3725,"deathLat":48.2083,"deathLng":16.3725,"fame":162,"image":"https://upload.wikimedia.org/wikipedia/commons/thumb/7/77/Erwin_Schr%C3%B6dinger_-_Narodowe_Archiwum_Cyfrowe_%281-E-939%29.jpg/330px-Erwin_Schr%C3%B6dinger_-_Narodowe_Archiwum_Cyfrowe_%281-E-939%29.jpg","wiki":"https://en.wikipedia.org/wiki/Erwin_Schr%C3%B6dinger"},{"name":"Robin Williams","birthYear":1951,"deathYear":2014,"birthLat":41.8819,"birthLng":-87.6278,"deathLat":37.8736,"deathLng":-122.4567,"fame":161,"image":"https://upload.wikimedia.org/wikipedia/commons/0/05/Robin_Williams_2011a_%282%29.jpg","wiki":"https://en.wikipedia.org/wiki/Robin_Williams"},{"name":"Petrarch","birthYear":1304,"deathYear":1374,"birthLat":43.4631,"birthLng":11.8781,"deathLat":45.2667,"deathLng":11.7167,"fame":161,"image":"https://upload.wikimedia.org/wikipedia/commons/thumb/8/8f/Portrait_of_Francesco_Petrarca_%28called_Petrarch%29_-_French_school%2C_17th_century.jpg/330px-Portrait_of_Francesco_Petrarca_%28called_Petrarch%29_-_French_school%2C_17th_century.jpg","wiki":"https://en.wikipedia.org/wiki/Petrarch"},{"name":"Octave Mirbeau","birthYear":1848,"deathYear":1917,"birthLat":49.3086,"birthLng":-0.9042,"deathLat":48.8751,"deathLng":2.2998,"fame":161,"image":"https://upload.wikimedia.org/wikipedia/commons/thumb/9/96/Octave_Mirbeau_portrait.jpg/330px-Octave_Mirbeau_portrait.jpg","wiki":"https://en.wikipedia.org/wiki/Octave_Mirbeau"},{"name":"Thales","birthYear":-624,"deathYear":-545,"birthLat":37.5311,"birthLng":27.2756,"deathLat":37.5311,"deathLng":27.2756,"fame":161,"image":"https://upload.wikimedia.org/wikipedia/commons/thumb/c/c6/Illustrerad_Verldshistoria_band_I_Ill_107.jpg/330px-Illustrerad_Verldshistoria_band_I_Ill_107.jpg","wiki":"https://en.wikipedia.org/wiki/Thales_of_Miletus"},{"name":"Anatole France","birthYear":1844,"deathYear":1924,"birthLat":48.8567,"birthLng":2.3522,"deathLat":47.4107,"deathLng":0.6558,"fame":161,"image":"https://upload.wikimedia.org/wikipedia/commons/thumb/c/c1/Anatole_France_young_years.jpg/330px-Anatole_France_young_years.jpg","wiki":"https://en.wikipedia.org/wiki/Anatole_France"},{"name":"Hermann Hesse","birthYear":1877,"deathYear":1962,"birthLat":48.7144,"birthLng":8.7375,"deathLat":45.9667,"deathLng":8.9167,"fame":160,"image":"https://upload.wikimedia.org/wikipedia/commons/thumb/d/da/Hermann_Hesse_2.jpg/330px-Hermann_Hesse_2.jpg","wiki":"https://en.wikipedia.org/wiki/Hermann_Hesse"},{"name":"Alexander Graham Bell","birthYear":1847,"deathYear":1922,"birthLat":55.9533,"birthLng":-3.1892,"deathLat":46.1092,"deathLng":-60.7016,"fame":160,"image":"https://upload.wikimedia.org/wikipedia/commons/thumb/9/9c/Alexander_Graham_Bell_1895_NPG_77_363.jpg/330px-Alexander_Graham_Bell_1895_NPG_77_363.jpg","wiki":"https://en.wikipedia.org/wiki/Alexander_Graham_Bell"},{"name":"Boris Yeltsin","birthYear":1931,"deathYear":2007,"birthLat":56.7167,"birthLng":63.7833,"deathLat":55.7506,"deathLng":37.6175,"fame":160,"image":"https://upload.wikimedia.org/wikipedia/commons/thumb/8/86/Boris_Yeltsin_%283x4_cropped%29.jpg/330px-Boris_Yeltsin_%283x4_cropped%29.jpg","wiki":"https://en.wikipedia.org/wiki/Boris_Yeltsin"},{"name":"Calvin Coolidge","birthYear":1872,"deathYear":1933,"birthLat":43.5299,"birthLng":-72.7388,"deathLat":42.325,"deathLng":-72.6417,"fame":160,"image":"https://upload.wikimedia.org/wikipedia/commons/thumb/4/4c/President_Calvin_Coolidge%2C_1924_portrait_photograph_%283x4_cropped_2%29.jpeg/330px-President_Calvin_Coolidge%2C_1924_portrait_photograph_%283x4_cropped_2%29.jpeg","wiki":"https://en.wikipedia.org/wiki/Calvin_Coolidge"},{"name":"Kim Il-sung","birthYear":1912,"deathYear":1994,"birthLat":39.0175,"birthLng":125.6802,"deathLat":39.0167,"deathLng":125.7475,"fame":160,"image":"https://upload.wikimedia.org/wikipedia/commons/thumb/c/c1/Kim_Il-sung_in_1950.jpg/330px-Kim_Il-sung_in_1950.jpg","wiki":"https://en.wikipedia.org/wiki/Kim_Il_Sung"},{"name":"Ingmar Bergman","birthYear":1918,"deathYear":2007,"birthLat":59.8498,"birthLng":17.6389,"deathLat":57.9158,"deathLng":19.1335,"fame":160,"image":"https://upload.wikimedia.org/wikipedia/commons/thumb/f/f2/Ingmar_Bergman_%281966%29.jpg/330px-Ingmar_Bergman_%281966%29.jpg","wiki":"https://en.wikipedia.org/wiki/Ingmar_Bergman"},{"name":"James Clerk Maxwell","birthYear":1831,"deathYear":1879,"birthLat":55.9533,"birthLng":-3.1892,"deathLat":52.2081,"deathLng":0.1225,"fame":160,"image":"https://upload.wikimedia.org/wikipedia/commons/thumb/b/b0/James-Clerk-Maxwell-1831-1879.jpg/330px-James-Clerk-Maxwell-1831-1879.jpg","wiki":"https://en.wikipedia.org/wiki/James_Clerk_Maxwell"},{"name":"Jacques Chirac","birthYear":1932,"deathYear":2019,"birthLat":48.8472,"birthLng":2.3444,"deathLat":48.8505,"deathLng":2.3322,"fame":159,"image":"https://upload.wikimedia.org/wikipedia/commons/thumb/7/7b/Jacques_Chirac_%281997%29_%28cropped%29.jpg/330px-Jacques_Chirac_%281997%29_%28cropped%29.jpg","wiki":"https://en.wikipedia.org/wiki/Jacques_Chirac"},{"name":"Aleksandr Solzhenitsyn","birthYear":1918,"deathYear":2008,"birthLat":43.91,"birthLng":42.72,"deathLat":55.7506,"deathLng":37.6175,"fame":159,"image":"https://upload.wikimedia.org/wikipedia/commons/thumb/8/8d/Aleksandr_Solzhenitsyn_1974crop.jpg/330px-Aleksandr_Solzhenitsyn_1974crop.jpg","wiki":"https://en.wikipedia.org/wiki/Aleksandr_Solzhenitsyn"},{"name":"Herbert Hoover","birthYear":1874,"deathYear":1964,"birthLat":41.6731,"birthLng":-91.3458,"deathLat":40.7128,"deathLng":-74.0061,"fame":159,"image":"https://upload.wikimedia.org/wikipedia/commons/thumb/5/57/President_Hoover_portrait.jpg/330px-President_Hoover_portrait.jpg","wiki":"https://en.wikipedia.org/wiki/Herbert_Hoover"},{"name":"Rumi","birthYear":1207,"deathYear":1273,"birthLat":37.7108,"birthLng":68.8311,"deathLat":37.8728,"deathLng":32.4921,"fame":159,"image":"https://upload.wikimedia.org/wikipedia/commons/thumb/e/ea/%D9%85%D9%88%D9%84%D8%A7%D9%86%D8%A7_%D8%A7%D8%AB%D8%B1_%D8%AD%D8%B3%DB%8C%D9%86_%D8%A8%D9%87%D8%B2%D8%A7%D8%AF_%28cropped%29.jpg/330px-%D9%85%D9%88%D9%84%D8%A7%D9%86%D8%A7_%D8%A7%D8%AB%D8%B1_%D8%AD%D8%B3%DB%8C%D9%86_%D8%A8%D9%87%D8%B2%D8%A7%D8%AF_%28cropped%29.jpg","wiki":"https://en.wikipedia.org/wiki/Rumi"},{"name":"Jacques Cartier","birthYear":1492,"deathYear":1557,"birthLat":48.6494,"birthLng":-2.0261,"deathLat":47.0,"deathLng":2.0,"fame":159,"image":"https://upload.wikimedia.org/wikipedia/commons/thumb/d/df/Jacques_Cartier_1851-1852.jpg/330px-Jacques_Cartier_1851-1852.jpg","wiki":"https://en.wikipedia.org/wiki/Jacques_Cartier"},{"name":"James Watt","birthYear":1736,"deathYear":1819,"birthLat":55.95,"birthLng":-4.7667,"deathLat":52.5058,"deathLng":-1.9155,"fame":159,"image":"https://upload.wikimedia.org/wikipedia/commons/thumb/1/15/Watt_James_von_Breda.jpg/330px-Watt_James_von_Breda.jpg","wiki":"https://en.wikipedia.org/wiki/James_Watt"},{"name":"Murasaki Shikibu","birthYear":970,"deathYear":1100,"birthLat":35.0,"birthLng":135.7667,"deathLat":35.0,"deathLng":135.7667,"fame":158,"image":"https://upload.wikimedia.org/wikipedia/commons/thumb/1/19/Murasaki-Shikibu-composing-Genji-Monogatari.png/330px-Murasaki-Shikibu-composing-Genji-Monogatari.png","wiki":"https://en.wikipedia.org/wiki/Murasaki_Shikibu"},{"name":"T. S. Eliot","birthYear":1888,"deathYear":1965,"birthLat":38.6264,"birthLng":-90.1994,"deathLat":51.5004,"deathLng":-0.1909,"fame":158,"image":"https://upload.wikimedia.org/wikipedia/commons/thumb/2/26/Thomas_Stearns_Eliot_by_Lady_Ottoline_Morrell_%281934%29.jpg/330px-Thomas_Stearns_Eliot_by_Lady_Ottoline_Morrell_%281934%29.jpg","wiki":"https://en.wikipedia.org/wiki/T._S._Eliot"},{"name":"Kahlil Gibran","birthYear":1883,"deathYear":1931,"birthLat":34.2512,"birthLng":36.0123,"deathLat":40.7128,"deathLng":-74.0061,"fame":158,"image":"https://upload.wikimedia.org/wikipedia/commons/3/34/Kahlil_Gibran_1913.jpg","wiki":"https://en.wikipedia.org/wiki/Kahlil_Gibran"},